[{
    "id": 2,
    "name": "Orange",
    "type": "Orange",
    "quantity": 500,
    "imageLocation": "https://upload.wikimedia.org/wikipedia/commons/7/7b/Orange-Whole-%26-Split.jpg",
    "description": "Orange description",
    "harvestDate": 1504137600000,
    "shipmentDate": 1509408000000,
    "latitue": 19.85306,
    "longitude": 74.000633,
    "city": "Sinnar",
    "state": "Maharashtra",
    "country": "India",
    "vendor": {
        "id": 254,
        "name": "Don",
        "email": "don@gmail.com",
        "phone": "1234567890",
        "rating": 2.5,
        "city": "Delhi",
        "state": "Delhi",
        "country": "India"
    }
}, {
    "id": 3,
    "name": "Tomato",
    "type": "Tomato",
    "quantity": 700,
    "imageLocation": "https://upload.wikimedia.org/wikipedia/commons/8/88/Bright_red_tomato_and_cross_section02.jpg",
    "description": "Tomato description",
    "harvestDate": 1523577600000,
    "shipmentDate": 1528848000000,
    "latitue": 19.85306,
    "longitude": 74.000633,
    "city": "Sinnar",
    "state": "Maharashtra",
    "country": "India",
    "vendor": {
        "id": 254,
        "name": "Don",
        "email": "don@gmail.com",
        "phone": "1234567890",
        "rating": 2.5,
        "city": "Delhi",
        "state": "Delhi",
        "country": "India"
    }
}, {
    "id": 4,
    "name": "Potato",
    "type": "Potato",
    "quantity": 900,
    "imageLocation": "https://upload.wikimedia.org/wikipedia/commons/a/ab/Patates.jpg",
    "description": "Potato description",
    "harvestDate": 1496188800000,
    "shipmentDate": 1501459200000,
    "latitue": 19.85306,
    "longitude": 74.000633,
    "city": "Sinnar",
    "state": "Maharashtra",
    "country": "India",
    "vendor": {
        "id": 253,
        "name": "Tom",
        "email": "tom@gmail.com",
        "phone": "1234567890",
        "rating": 3.5,
        "city": "Delhi",
        "state": "Delhi",
        "country": "India"
    }
}, {
    "id": 5,
    "name": "Orange",
    "type": "Orange",
    "quantity": 500,
    "imageLocation": "https://upload.wikimedia.org/wikipedia/commons/7/7b/Orange-Whole-%26-Split.jpg",
    "description": "Orange description",
    "harvestDate": 1503100800000,
    "shipmentDate": 1508371200000,
    "latitue": 15.167409,
    "longitude": 77.373627,
    "city": "Guntakal",
    "state": "Andhra Pradesh",
    "country": "India",
    "vendor": {
        "id": 254,
        "name": "Don",
        "email": "don@gmail.com",
        "phone": "1234567890",
        "rating": 2.5,
        "city": "Delhi",
        "state": "Delhi",
        "country": "India"
    }
}, {
    "id": 6,
    "name": "Tomato",
    "type": "Tomato",
    "quantity": 700,
    "imageLocation": "https://upload.wikimedia.org/wikipedia/commons/8/88/Bright_red_tomato_and_cross_section02.jpg",
    "description": "Tomato description",
    "harvestDate": 1499904000000,
    "shipmentDate": 1505260800000,
    "latitue": 15.167409,
    "longitude": 77.373627,
    "city": "Guntakal",
    "state": "Andhra Pradesh",
    "country": "India",
    "vendor": {
        "id": 253,
        "name": "Tom",
        "email": "tom@gmail.com",
        "phone": "1234567890",
        "rating": 3.5,
        "city": "Delhi",
        "state": "Delhi",
        "country": "India"
    }
}, {
    "id": 7,
    "name": "Potato",
    "type": "Potato",
    "quantity": 900,
    "imageLocation": "https://upload.wikimedia.org/wikipedia/commons/a/ab/Patates.jpg",
    "description": "Potato description",
    "harvestDate": 1504742400000,
    "shipmentDate": 1510012800000,
    "latitue": 15.167409,
    "longitude": 77.373627,
    "city": "Guntakal",
    "state": "Andhra Pradesh",
    "country": "India",
    "vendor": {
        "id": 254,
        "name": "Don",
        "email": "don@gmail.com",
        "phone": "1234567890",
        "rating": 2.5,
        "city": "Delhi",
        "state": "Delhi",
        "country": "India"
    }
}, {
    "id": 8,
    "name": "Orange",
    "type": "Orange",
    "quantity": 500,
    "imageLocation": "https://upload.wikimedia.org/wikipedia/commons/7/7b/Orange-Whole-%26-Split.jpg",
    "description": "Orange description",
    "harvestDate": 1493510400000,
    "shipmentDate": 1498780800000,
    "latitue": 24.417534,
    "longitude": 88.250343,
    "city": "Lalgola",
    "state": "West Bengal",
    "country": "India",
    "vendor": {
        "id": 253,
        "name": "Tom",
        "email": "tom@gmail.com",
        "phone": "1234567890",
        "rating": 3.5,
        "city": "Delhi",
        "state": "Delhi",
        "country": "India"
    }
}, {
    "id": 9,
    "name": "Tomato",
    "type": "Tomato",
    "quantity": 700,
    "imageLocation": "https://upload.wikimedia.org/wikipedia/commons/8/88/Bright_red_tomato_and_cross_section02.jpg",
    "description": "Tomato description",
    "harvestDate": 1496188800000,
    "shipmentDate": 1501459200000,
    "latitue": 24.417534,
    "longitude": 88.250343,
    "city": "Lalgola",
    "state": "West Bengal",
    "country": "India",
    "vendor": {
        "id": 255,
        "name": "Harry",
        "email": "harry@gmail.com",
        "phone": "1234567890",
        "rating": 4.5,
        "city": "Delhi",
        "state": "Delhi",
        "country": "India"
    }
}, {
    "id": 10,
    "name": "Potato",
    "type": "Potato",
    "quantity": 900,
    "imageLocation": "https://upload.wikimedia.org/wikipedia/commons/a/ab/Patates.jpg",
    "description": "Potato description",
    "harvestDate": 1518739200000,
    "shipmentDate": 1523836800000,
    "latitue": 24.417534,
    "longitude": 88.250343,
    "city": "Lalgola",
    "state": "West Bengal",
    "country": "India",
    "vendor": {
        "id": 253,
        "name": "Tom",
        "email": "tom@gmail.com",
        "phone": "1234567890",
        "rating": 3.5,
        "city": "Delhi",
        "state": "Delhi",
        "country": "India"
    }
}, {
    "id": 11,
    "name": "Orange",
    "type": "Orange",
    "quantity": 500,
    "imageLocation": "https://upload.wikimedia.org/wikipedia/commons/7/7b/Orange-Whole-%26-Split.jpg",
    "description": "Orange description",
    "harvestDate": 1507852800000,
    "shipmentDate": 1513123200000,
    "latitue": 22.744108,
    "longitude": 77.736969,
    "city": "Hoshangabad",
    "state": "Madhya Pradesh",
    "country": "India",
    "vendor": {
        "id": 254,
        "name": "Don",
        "email": "don@gmail.com",
        "phone": "1234567890",
        "rating": 2.5,
        "city": "Delhi",
        "state": "Delhi",
        "country": "India"
    }
}, {
    "id": 12,
    "name": "Tomato",
    "type": "Tomato",
    "quantity": 700,
    "imageLocation": "https://upload.wikimedia.org/wikipedia/commons/8/88/Bright_red_tomato_and_cross_section02.jpg",
    "description": "Tomato description",
    "harvestDate": 1510012800000,
    "shipmentDate": 1515283200000,
    "latitue": 22.744108,
    "longitude": 77.736969,
    "city": "Hoshangabad",
    "state": "Madhya Pradesh",
    "country": "India",
    "vendor": {
        "id": 256,
        "name": "Bill",
        "email": "bill@gmail.com",
        "phone": "1234567890",
        "rating": 5.0,
        "city": "Delhi",
        "state": "Delhi",
        "country": "India"
    }
}, {
    "id": 13,
    "name": "Potato",
    "type": "Potato",
    "quantity": 900,
    "imageLocation": "https://upload.wikimedia.org/wikipedia/commons/a/ab/Patates.jpg",
    "description": "Potato description",
    "harvestDate": 1494979200000,
    "shipmentDate": 1500249600000,
    "latitue": 22.744108,
    "longitude": 77.736969,
    "city": "Hoshangabad",
    "state": "Madhya Pradesh",
    "country": "India",
    "vendor": {
        "id": 253,
        "name": "Tom",
        "email": "tom@gmail.com",
        "phone": "1234567890",
        "rating": 3.5,
        "city": "Delhi",
        "state": "Delhi",
        "country": "India"
    }
}, {
    "id": 14,
    "name": "Orange",
    "type": "Orange",
    "quantity": 500,
    "imageLocation": "https://upload.wikimedia.org/wikipedia/commons/7/7b/Orange-Whole-%26-Split.jpg",
    "description": "Orange description",
    "harvestDate": 1514764800000,
    "shipmentDate": 1519862400000,
    "latitue": 14.752805,
    "longitude": 78.552757,
    "city": "Proddatur",
    "state": "Andhra Pradesh",
    "country": "India",
    "vendor": {
        "id": 253,
        "name": "Tom",
        "email": "tom@gmail.com",
        "phone": "1234567890",
        "rating": 3.5,
        "city": "Delhi",
        "state": "Delhi",
        "country": "India"
    }
}, {
    "id": 15,
    "name": "Tomato",
    "type": "Tomato",
    "quantity": 700,
    "imageLocation": "https://upload.wikimedia.org/wikipedia/commons/8/88/Bright_red_tomato_and_cross_section02.jpg",
    "description": "Tomato description",
    "harvestDate": 1520467200000,
    "shipmentDate": 1525737600000,
    "latitue": 14.752805,
    "longitude": 78.552757,
    "city": "Proddatur",
    "state": "Andhra Pradesh",
    "country": "India",
    "vendor": {
        "id": 254,
        "name": "Don",
        "email": "don@gmail.com",
        "phone": "1234567890",
        "rating": 2.5,
        "city": "Delhi",
        "state": "Delhi",
        "country": "India"
    }
}, {
    "id": 16,
    "name": "Potato",
    "type": "Potato",
    "quantity": 900,
    "imageLocation": "https://upload.wikimedia.org/wikipedia/commons/a/ab/Patates.jpg",
    "description": "Potato description",
    "harvestDate": 1493856000000,
    "shipmentDate": 1499126400000,
    "latitue": 14.752805,
    "longitude": 78.552757,
    "city": "Proddatur",
    "state": "Andhra Pradesh",
    "country": "India",
    "vendor": {
        "id": 255,
        "name": "Harry",
        "email": "harry@gmail.com",
        "phone": "1234567890",
        "rating": 4.5,
        "city": "Delhi",
        "state": "Delhi",
        "country": "India"
    }
}, {
    "id": 17,
    "name": "Orange",
    "type": "Orange",
    "quantity": 500,
    "imageLocation": "https://upload.wikimedia.org/wikipedia/commons/7/7b/Orange-Whole-%26-Split.jpg",
    "description": "Orange description",
    "harvestDate": 1514505600000,
    "shipmentDate": 1519776000000,
    "latitue": 23.669296,
    "longitude": 86.151115,
    "city": "Bokaro Steel City",
    "state": "Jharkhand",
    "country": "India",
    "vendor": {
        "id": 256,
        "name": "Bill",
        "email": "bill@gmail.com",
        "phone": "1234567890",
        "rating": 5.0,
        "city": "Delhi",
        "state": "Delhi",
        "country": "India"
    }
}, {
    "id": 18,
    "name": "Tomato",
    "type": "Tomato",
    "quantity": 700,
    "imageLocation": "https://upload.wikimedia.org/wikipedia/commons/8/88/Bright_red_tomato_and_cross_section02.jpg",
    "description": "Tomato description",
    "harvestDate": 1492819200000,
    "shipmentDate": 1498089600000,
    "latitue": 23.669296,
    "longitude": 86.151115,
    "city": "Bokaro Steel City",
    "state": "Jharkhand",
    "country": "India",
    "vendor": {
        "id": 253,
        "name": "Tom",
        "email": "tom@gmail.com",
        "phone": "1234567890",
        "rating": 3.5,
        "city": "Delhi",
        "state": "Delhi",
        "country": "India"
    }
}, {
    "id": 19,
    "name": "Potato",
    "type": "Potato",
    "quantity": 900,
    "imageLocation": "https://upload.wikimedia.org/wikipedia/commons/a/ab/Patates.jpg",
    "description": "Potato description",
    "harvestDate": 1503792000000,
    "shipmentDate": 1509062400000,
    "latitue": 23.669296,
    "longitude": 86.151115,
    "city": "Bokaro Steel City",
    "state": "Jharkhand",
    "country": "India",
    "vendor": {
        "id": 253,
        "name": "Tom",
        "email": "tom@gmail.com",
        "phone": "1234567890",
        "rating": 3.5,
        "city": "Delhi",
        "state": "Delhi",
        "country": "India"
    }
}, {
    "id": 20,
    "name": "Orange",
    "type": "Orange",
    "quantity": 500,
    "imageLocation": "https://upload.wikimedia.org/wikipedia/commons/7/7b/Orange-Whole-%26-Split.jpg",
    "description": "Orange description",
    "harvestDate": 1517616000000,
    "shipmentDate": 1522713600000,
    "latitue": 21.761524,
    "longitude": 70.627625,
    "city": "Jetpur",
    "state": "Gujarat",
    "country": "India",
    "vendor": {
        "id": 254,
        "name": "Don",
        "email": "don@gmail.com",
        "phone": "1234567890",
        "rating": 2.5,
        "city": "Delhi",
        "state": "Delhi",
        "country": "India"
    }
}, {
    "id": 21,
    "name": "Tomato",
    "type": "Tomato",
    "quantity": 700,
    "imageLocation": "https://upload.wikimedia.org/wikipedia/commons/8/88/Bright_red_tomato_and_cross_section02.jpg",
    "description": "Tomato description",
    "harvestDate": 1505520000000,
    "shipmentDate": 1510790400000,
    "latitue": 21.761524,
    "longitude": 70.627625,
    "city": "Jetpur",
    "state": "Gujarat",
    "country": "India",
    "vendor": {
        "id": 254,
        "name": "Don",
        "email": "don@gmail.com",
        "phone": "1234567890",
        "rating": 2.5,
        "city": "Delhi",
        "state": "Delhi",
        "country": "India"
    }
}, {
    "id": 22,
    "name": "Potato",
    "type": "Potato",
    "quantity": 900,
    "imageLocation": "https://upload.wikimedia.org/wikipedia/commons/a/ab/Patates.jpg",
    "description": "Potato description",
    "harvestDate": 1514851200000,
    "shipmentDate": 1519948800000,
    "latitue": 21.761524,
    "longitude": 70.627625,
    "city": "Jetpur",
    "state": "Gujarat",
    "country": "India",
    "vendor": {
        "id": 253,
        "name": "Tom",
        "email": "tom@gmail.com",
        "phone": "1234567890",
        "rating": 3.5,
        "city": "Delhi",
        "state": "Delhi",
        "country": "India"
    }
}, {
    "id": 23,
    "name": "Orange",
    "type": "Orange",
    "quantity": 500,
    "imageLocation": "https://upload.wikimedia.org/wikipedia/commons/7/7b/Orange-Whole-%26-Split.jpg",
    "description": "Orange description",
    "harvestDate": 1515888000000,
    "shipmentDate": 1520985600000,
    "latitue": 22.657402,
    "longitude": 88.86718,
    "city": "Basirhat",
    "state": "West Bengal",
    "country": "India",
    "vendor": {
        "id": 253,
        "name": "Tom",
        "email": "tom@gmail.com",
        "phone": "1234567890",
        "rating": 3.5,
        "city": "Delhi",
        "state": "Delhi",
        "country": "India"
    }
}, {
    "id": 24,
    "name": "Tomato",
    "type": "Tomato",
    "quantity": 700,
    "imageLocation": "https://upload.wikimedia.org/wikipedia/commons/8/88/Bright_red_tomato_and_cross_section02.jpg",
    "description": "Tomato description",
    "harvestDate": 1505692800000,
    "shipmentDate": 1510963200000,
    "latitue": 22.657402,
    "longitude": 88.86718,
    "city": "Basirhat",
    "state": "West Bengal",
    "country": "India",
    "vendor": {
        "id": 253,
        "name": "Tom",
        "email": "tom@gmail.com",
        "phone": "1234567890",
        "rating": 3.5,
        "city": "Delhi",
        "state": "Delhi",
        "country": "India"
    }
}, {
    "id": 25,
    "name": "Potato",
    "type": "Potato",
    "quantity": 900,
    "imageLocation": "https://upload.wikimedia.org/wikipedia/commons/a/ab/Patates.jpg",
    "description": "Potato description",
    "harvestDate": 1492905600000,
    "shipmentDate": 1498176000000,
    "latitue": 22.657402,
    "longitude": 88.86718,
    "city": "Basirhat",
    "state": "West Bengal",
    "country": "India",
    "vendor": {
        "id": 256,
        "name": "Bill",
        "email": "bill@gmail.com",
        "phone": "1234567890",
        "rating": 5.0,
        "city": "Delhi",
        "state": "Delhi",
        "country": "India"
    }
}, {
    "id": 26,
    "name": "Orange",
    "type": "Orange",
    "quantity": 500,
    "imageLocation": "https://upload.wikimedia.org/wikipedia/commons/7/7b/Orange-Whole-%26-Split.jpg",
    "description": "Orange description",
    "harvestDate": 1517443200000,
    "shipmentDate": 1522540800000,
    "latitue": 22.700474,
    "longitude": 88.319069,
    "city": "Mirpur",
    "state": "West Bengal",
    "country": "India",
    "vendor": {
        "id": 256,
        "name": "Bill",
        "email": "bill@gmail.com",
        "phone": "1234567890",
        "rating": 5.0,
        "city": "Delhi",
        "state": "Delhi",
        "country": "India"
    }
}, {
    "id": 27,
    "name": "Tomato",
    "type": "Tomato",
    "quantity": 700,
    "imageLocation": "https://upload.wikimedia.org/wikipedia/commons/8/88/Bright_red_tomato_and_cross_section02.jpg",
    "description": "Tomato description",
    "harvestDate": 1516060800000,
    "shipmentDate": 1521158400000,
    "latitue": 22.700474,
    "longitude": 88.319069,
    "city": "Mirpur",
    "state": "West Bengal",
    "country": "India",
    "vendor": {
        "id": 253,
        "name": "Tom",
        "email": "tom@gmail.com",
        "phone": "1234567890",
        "rating": 3.5,
        "city": "Delhi",
        "state": "Delhi",
        "country": "India"
    }
}, {
    "id": 28,
    "name": "Potato",
    "type": "Potato",
    "quantity": 900,
    "imageLocation": "https://upload.wikimedia.org/wikipedia/commons/a/ab/Patates.jpg",
    "description": "Potato description",
    "harvestDate": 1498435200000,
    "shipmentDate": 1503705600000,
    "latitue": 22.700474,
    "longitude": 88.319069,
    "city": "Mirpur",
    "state": "West Bengal",
    "country": "India",
    "vendor": {
        "id": 255,
        "name": "Harry",
        "email": "harry@gmail.com",
        "phone": "1234567890",
        "rating": 4.5,
        "city": "Delhi",
        "state": "Delhi",
        "country": "India"
    }
}, {
    "id": 29,
    "name": "Orange",
    "type": "Orange",
    "quantity": 500,
    "imageLocation": "https://upload.wikimedia.org/wikipedia/commons/7/7b/Orange-Whole-%26-Split.jpg",
    "description": "Orange description",
    "harvestDate": 1500854400000,
    "shipmentDate": 1506211200000,
    "latitue": 23.344101,
    "longitude": 85.309563,
    "city": "Ranchi",
    "state": "Jharkhand",
    "country": "India",
    "vendor": {
        "id": 256,
        "name": "Bill",
        "email": "bill@gmail.com",
        "phone": "1234567890",
        "rating": 5.0,
        "city": "Delhi",
        "state": "Delhi",
        "country": "India"
    }
}, {
    "id": 30,
    "name": "Tomato",
    "type": "Tomato",
    "quantity": 700,
    "imageLocation": "https://upload.wikimedia.org/wikipedia/commons/8/88/Bright_red_tomato_and_cross_section02.jpg",
    "description": "Tomato description",
    "harvestDate": 1508630400000,
    "shipmentDate": 1513900800000,
    "latitue": 23.344101,
    "longitude": 85.309563,
    "city": "Ranchi",
    "state": "Jharkhand",
    "country": "India",
    "vendor": {
        "id": 256,
        "name": "Bill",
        "email": "bill@gmail.com",
        "phone": "1234567890",
        "rating": 5.0,
        "city": "Delhi",
        "state": "Delhi",
        "country": "India"
    }
}, {
    "id": 31,
    "name": "Potato",
    "type": "Potato",
    "quantity": 900,
    "imageLocation": "https://upload.wikimedia.org/wikipedia/commons/a/ab/Patates.jpg",
    "description": "Potato description",
    "harvestDate": 1493596800000,
    "shipmentDate": 1498867200000,
    "latitue": 23.344101,
    "longitude": 85.309563,
    "city": "Ranchi",
    "state": "Jharkhand",
    "country": "India",
    "vendor": {
        "id": 253,
        "name": "Tom",
        "email": "tom@gmail.com",
        "phone": "1234567890",
        "rating": 3.5,
        "city": "Delhi",
        "state": "Delhi",
        "country": "India"
    }
}, {
    "id": 32,
    "name": "Orange",
    "type": "Orange",
    "quantity": 500,
    "imageLocation": "https://upload.wikimedia.org/wikipedia/commons/7/7b/Orange-Whole-%26-Split.jpg",
    "description": "Orange description",
    "harvestDate": 1517097600000,
    "shipmentDate": 1522195200000,
    "latitue": 14.146319,
    "longitude": 79.850388,
    "city": "Gudur",
    "state": "Andhra Pradesh",
    "country": "India",
    "vendor": {
        "id": 254,
        "name": "Don",
        "email": "don@gmail.com",
        "phone": "1234567890",
        "rating": 2.5,
        "city": "Delhi",
        "state": "Delhi",
        "country": "India"
    }
}, {
    "id": 33,
    "name": "Tomato",
    "type": "Tomato",
    "quantity": 700,
    "imageLocation": "https://upload.wikimedia.org/wikipedia/commons/8/88/Bright_red_tomato_and_cross_section02.jpg",
    "description": "Tomato description",
    "harvestDate": 1522540800000,
    "shipmentDate": 1527811200000,
    "latitue": 14.146319,
    "longitude": 79.850388,
    "city": "Gudur",
    "state": "Andhra Pradesh",
    "country": "India",
    "vendor": {
        "id": 253,
        "name": "Tom",
        "email": "tom@gmail.com",
        "phone": "1234567890",
        "rating": 3.5,
        "city": "Delhi",
        "state": "Delhi",
        "country": "India"
    }
}, {
    "id": 34,
    "name": "Potato",
    "type": "Potato",
    "quantity": 900,
    "imageLocation": "https://upload.wikimedia.org/wikipedia/commons/a/ab/Patates.jpg",
    "description": "Potato description",
    "harvestDate": 1497830400000,
    "shipmentDate": 1503100800000,
    "latitue": 14.146319,
    "longitude": 79.850388,
    "city": "Gudur",
    "state": "Andhra Pradesh",
    "country": "India",
    "vendor": {
        "id": 253,
        "name": "Tom",
        "email": "tom@gmail.com",
        "phone": "1234567890",
        "rating": 3.5,
        "city": "Delhi",
        "state": "Delhi",
        "country": "India"
    }
}, {
    "id": 35,
    "name": "Orange",
    "type": "Orange",
    "quantity": 500,
    "imageLocation": "https://upload.wikimedia.org/wikipedia/commons/7/7b/Orange-Whole-%26-Split.jpg",
    "description": "Orange description",
    "harvestDate": 1517011200000,
    "shipmentDate": 1522108800000,
    "latitue": 28.078636,
    "longitude": 80.471588,
    "city": "Gola Gokarannath",
    "state": "Uttar Pradesh",
    "country": "India",
    "vendor": {
        "id": 254,
        "name": "Don",
        "email": "don@gmail.com",
        "phone": "1234567890",
        "rating": 2.5,
        "city": "Delhi",
        "state": "Delhi",
        "country": "India"
    }
}, {
    "id": 36,
    "name": "Tomato",
    "type": "Tomato",
    "quantity": 700,
    "imageLocation": "https://upload.wikimedia.org/wikipedia/commons/8/88/Bright_red_tomato_and_cross_section02.jpg",
    "description": "Tomato description",
    "harvestDate": 1516579200000,
    "shipmentDate": 1521676800000,
    "latitue": 28.078636,
    "longitude": 80.471588,
    "city": "Gola Gokarannath",
    "state": "Uttar Pradesh",
    "country": "India",
    "vendor": {
        "id": 254,
        "name": "Don",
        "email": "don@gmail.com",
        "phone": "1234567890",
        "rating": 2.5,
        "city": "Delhi",
        "state": "Delhi",
        "country": "India"
    }
}, {
    "id": 37,
    "name": "Potato",
    "type": "Potato",
    "quantity": 900,
    "imageLocation": "https://upload.wikimedia.org/wikipedia/commons/a/ab/Patates.jpg",
    "description": "Potato description",
    "harvestDate": 1504828800000,
    "shipmentDate": 1510099200000,
    "latitue": 28.078636,
    "longitude": 80.471588,
    "city": "Gola Gokarannath",
    "state": "Uttar Pradesh",
    "country": "India",
    "vendor": {
        "id": 253,
        "name": "Tom",
        "email": "tom@gmail.com",
        "phone": "1234567890",
        "rating": 3.5,
        "city": "Delhi",
        "state": "Delhi",
        "country": "India"
    }
}, {
    "id": 38,
    "name": "Orange",
    "type": "Orange",
    "quantity": 500,
    "imageLocation": "https://upload.wikimedia.org/wikipedia/commons/7/7b/Orange-Whole-%26-Split.jpg",
    "description": "Orange description",
    "harvestDate": 1504224000000,
    "shipmentDate": 1509494400000,
    "latitue": 27.108416,
    "longitude": 78.584602,
    "city": "Shikohabad",
    "state": "Uttar Pradesh",
    "country": "India",
    "vendor": {
        "id": 255,
        "name": "Harry",
        "email": "harry@gmail.com",
        "phone": "1234567890",
        "rating": 4.5,
        "city": "Delhi",
        "state": "Delhi",
        "country": "India"
    }
}, {
    "id": 39,
    "name": "Tomato",
    "type": "Tomato",
    "quantity": 700,
    "imageLocation": "https://upload.wikimedia.org/wikipedia/commons/8/88/Bright_red_tomato_and_cross_section02.jpg",
    "description": "Tomato description",
    "harvestDate": 1522800000000,
    "shipmentDate": 1528070400000,
    "latitue": 27.108416,
    "longitude": 78.584602,
    "city": "Shikohabad",
    "state": "Uttar Pradesh",
    "country": "India",
    "vendor": {
        "id": 254,
        "name": "Don",
        "email": "don@gmail.com",
        "phone": "1234567890",
        "rating": 2.5,
        "city": "Delhi",
        "state": "Delhi",
        "country": "India"
    }
}, {
    "id": 40,
    "name": "Potato",
    "type": "Potato",
    "quantity": 900,
    "imageLocation": "https://upload.wikimedia.org/wikipedia/commons/a/ab/Patates.jpg",
    "description": "Potato description",
    "harvestDate": 1508284800000,
    "shipmentDate": 1513555200000,
    "latitue": 27.108416,
    "longitude": 78.584602,
    "city": "Shikohabad",
    "state": "Uttar Pradesh",
    "country": "India",
    "vendor": {
        "id": 255,
        "name": "Harry",
        "email": "harry@gmail.com",
        "phone": "1234567890",
        "rating": 4.5,
        "city": "Delhi",
        "state": "Delhi",
        "country": "India"
    }
}, {
    "id": 41,
    "name": "Orange",
    "type": "Orange",
    "quantity": 500,
    "imageLocation": "https://upload.wikimedia.org/wikipedia/commons/7/7b/Orange-Whole-%26-Split.jpg",
    "description": "Orange description",
    "harvestDate": 1493510400000,
    "shipmentDate": 1498780800000,
    "latitue": 9.823619,
    "longitude": 77.986565,
    "city": "Tirumangalam",
    "state": "Tamil Nadu",
    "country": "India",
    "vendor": {
        "id": 255,
        "name": "Harry",
        "email": "harry@gmail.com",
        "phone": "1234567890",
        "rating": 4.5,
        "city": "Delhi",
        "state": "Delhi",
        "country": "India"
    }
}, {
    "id": 42,
    "name": "Tomato",
    "type": "Tomato",
    "quantity": 700,
    "imageLocation": "https://upload.wikimedia.org/wikipedia/commons/8/88/Bright_red_tomato_and_cross_section02.jpg",
    "description": "Tomato description",
    "harvestDate": 1510790400000,
    "shipmentDate": 1516060800000,
    "latitue": 9.823619,
    "longitude": 77.986565,
    "city": "Tirumangalam",
    "state": "Tamil Nadu",
    "country": "India",
    "vendor": {
        "id": 254,
        "name": "Don",
        "email": "don@gmail.com",
        "phone": "1234567890",
        "rating": 2.5,
        "city": "Delhi",
        "state": "Delhi",
        "country": "India"
    }
}, {
    "id": 43,
    "name": "Potato",
    "type": "Potato",
    "quantity": 900,
    "imageLocation": "https://upload.wikimedia.org/wikipedia/commons/a/ab/Patates.jpg",
    "description": "Potato description",
    "harvestDate": 1512345600000,
    "shipmentDate": 1517702400000,
    "latitue": 9.823619,
    "longitude": 77.986565,
    "city": "Tirumangalam",
    "state": "Tamil Nadu",
    "country": "India",
    "vendor": {
        "id": 255,
        "name": "Harry",
        "email": "harry@gmail.com",
        "phone": "1234567890",
        "rating": 4.5,
        "city": "Delhi",
        "state": "Delhi",
        "country": "India"
    }
}, {
    "id": 44,
    "name": "Orange",
    "type": "Orange",
    "quantity": 500,
    "imageLocation": "https://upload.wikimedia.org/wikipedia/commons/7/7b/Orange-Whole-%26-Split.jpg",
    "description": "Orange description",
    "harvestDate": 1505606400000,
    "shipmentDate": 1510876800000,
    "latitue": 20.484348,
    "longitude": 86.119194,
    "city": "Salipur",
    "state": "Odisha",
    "country": "India",
    "vendor": {
        "id": 255,
        "name": "Harry",
        "email": "harry@gmail.com",
        "phone": "1234567890",
        "rating": 4.5,
        "city": "Delhi",
        "state": "Delhi",
        "country": "India"
    }
}, {
    "id": 45,
    "name": "Tomato",
    "type": "Tomato",
    "quantity": 700,
    "imageLocation": "https://upload.wikimedia.org/wikipedia/commons/8/88/Bright_red_tomato_and_cross_section02.jpg",
    "description": "Tomato description",
    "harvestDate": 1499558400000,
    "shipmentDate": 1504915200000,
    "latitue": 20.484348,
    "longitude": 86.119194,
    "city": "Salipur",
    "state": "Odisha",
    "country": "India",
    "vendor": {
        "id": 253,
        "name": "Tom",
        "email": "tom@gmail.com",
        "phone": "1234567890",
        "rating": 3.5,
        "city": "Delhi",
        "state": "Delhi",
        "country": "India"
    }
}, {
    "id": 46,
    "name": "Potato",
    "type": "Potato",
    "quantity": 900,
    "imageLocation": "https://upload.wikimedia.org/wikipedia/commons/a/ab/Patates.jpg",
    "description": "Potato description",
    "harvestDate": 1494633600000,
    "shipmentDate": 1499904000000,
    "latitue": 20.484348,
    "longitude": 86.119194,
    "city": "Salipur",
    "state": "Odisha",
    "country": "India",
    "vendor": {
        "id": 254,
        "name": "Don",
        "email": "don@gmail.com",
        "phone": "1234567890",
        "rating": 2.5,
        "city": "Delhi",
        "state": "Delhi",
        "country": "India"
    }
}, {
    "id": 47,
    "name": "Orange",
    "type": "Orange",
    "quantity": 500,
    "imageLocation": "https://upload.wikimedia.org/wikipedia/commons/7/7b/Orange-Whole-%26-Split.jpg",
    "description": "Orange description",
    "harvestDate": 1523923200000,
    "shipmentDate": 1529193600000,
    "latitue": 43.224194,
    "longitude": -86.235809,
    "city": "Muskegon",
    "state": "MI",
    "country": "USA",
    "vendor": {
        "id": 253,
        "name": "Tom",
        "email": "tom@gmail.com",
        "phone": "1234567890",
        "rating": 3.5,
        "city": "Delhi",
        "state": "Delhi",
        "country": "India"
    }
}, {
    "id": 48,
    "name": "Tomato",
    "type": "Tomato",
    "quantity": 700,
    "imageLocation": "https://upload.wikimedia.org/wikipedia/commons/8/88/Bright_red_tomato_and_cross_section02.jpg",
    "description": "Tomato description",
    "harvestDate": 1501977600000,
    "shipmentDate": 1507248000000,
    "latitue": 43.224194,
    "longitude": -86.235809,
    "city": "Muskegon",
    "state": "MI",
    "country": "USA",
    "vendor": {
        "id": 253,
        "name": "Tom",
        "email": "tom@gmail.com",
        "phone": "1234567890",
        "rating": 3.5,
        "city": "Delhi",
        "state": "Delhi",
        "country": "India"
    }
}, {
    "id": 49,
    "name": "Potato",
    "type": "Potato",
    "quantity": 900,
    "imageLocation": "https://upload.wikimedia.org/wikipedia/commons/a/ab/Patates.jpg",
    "description": "Potato description",
    "harvestDate": 1512432000000,
    "shipmentDate": 1517788800000,
    "latitue": 43.224194,
    "longitude": -86.235809,
    "city": "Muskegon",
    "state": "MI",
    "country": "USA",
    "vendor": {
        "id": 254,
        "name": "Don",
        "email": "don@gmail.com",
        "phone": "1234567890",
        "rating": 2.5,
        "city": "Delhi",
        "state": "Delhi",
        "country": "India"
    }
}, {
    "id": 50,
    "name": "Orange",
    "type": "Orange",
    "quantity": 500,
    "imageLocation": "https://upload.wikimedia.org/wikipedia/commons/7/7b/Orange-Whole-%26-Split.jpg",
    "description": "Orange description",
    "harvestDate": 1495152000000,
    "shipmentDate": 1500422400000,
    "latitue": 34.426388,
    "longitude": -117.30088,
    "city": "Hesperia",
    "state": "CA",
    "country": "USA",
    "vendor": {
        "id": 256,
        "name": "Bill",
        "email": "bill@gmail.com",
        "phone": "1234567890",
        "rating": 5.0,
        "city": "Delhi",
        "state": "Delhi",
        "country": "India"
    }
}, {
    "id": 51,
    "name": "Tomato",
    "type": "Tomato",
    "quantity": 700,
    "imageLocation": "https://upload.wikimedia.org/wikipedia/commons/8/88/Bright_red_tomato_and_cross_section02.jpg",
    "description": "Tomato description",
    "harvestDate": 1516320000000,
    "shipmentDate": 1521417600000,
    "latitue": 34.426388,
    "longitude": -117.30088,
    "city": "Hesperia",
    "state": "CA",
    "country": "USA",
    "vendor": {
        "id": 254,
        "name": "Don",
        "email": "don@gmail.com",
        "phone": "1234567890",
        "rating": 2.5,
        "city": "Delhi",
        "state": "Delhi",
        "country": "India"
    }
}, {
    "id": 52,
    "name": "Potato",
    "type": "Potato",
    "quantity": 900,
    "imageLocation": "https://upload.wikimedia.org/wikipedia/commons/a/ab/Patates.jpg",
    "description": "Potato description",
    "harvestDate": 1508889600000,
    "shipmentDate": 1514160000000,
    "latitue": 34.426388,
    "longitude": -117.30088,
    "city": "Hesperia",
    "state": "CA",
    "country": "USA",
    "vendor": {
        "id": 253,
        "name": "Tom",
        "email": "tom@gmail.com",
        "phone": "1234567890",
        "rating": 3.5,
        "city": "Delhi",
        "state": "Delhi",
        "country": "India"
    }
}, {
    "id": 53,
    "name": "Orange",
    "type": "Orange",
    "quantity": 500,
    "imageLocation": "https://upload.wikimedia.org/wikipedia/commons/7/7b/Orange-Whole-%26-Split.jpg",
    "description": "Orange description",
    "harvestDate": 1501113600000,
    "shipmentDate": 1506470400000,
    "latitue": 34.686787,
    "longitude": -118.15416,
    "city": "Lancaster",
    "state": "CA",
    "country": "USA",
    "vendor": {
        "id": 256,
        "name": "Bill",
        "email": "bill@gmail.com",
        "phone": "1234567890",
        "rating": 5.0,
        "city": "Delhi",
        "state": "Delhi",
        "country": "India"
    }
}, {
    "id": 54,
    "name": "Tomato",
    "type": "Tomato",
    "quantity": 700,
    "imageLocation": "https://upload.wikimedia.org/wikipedia/commons/8/88/Bright_red_tomato_and_cross_section02.jpg",
    "description": "Tomato description",
    "harvestDate": 1506297600000,
    "shipmentDate": 1511568000000,
    "latitue": 34.686787,
    "longitude": -118.15416,
    "city": "Lancaster",
    "state": "CA",
    "country": "USA",
    "vendor": {
        "id": 254,
        "name": "Don",
        "email": "don@gmail.com",
        "phone": "1234567890",
        "rating": 2.5,
        "city": "Delhi",
        "state": "Delhi",
        "country": "India"
    }
}, {
    "id": 55,
    "name": "Potato",
    "type": "Potato",
    "quantity": 900,
    "imageLocation": "https://upload.wikimedia.org/wikipedia/commons/a/ab/Patates.jpg",
    "description": "Potato description",
    "harvestDate": 1522195200000,
    "shipmentDate": 1527465600000,
    "latitue": 34.686787,
    "longitude": -118.15416,
    "city": "Lancaster",
    "state": "CA",
    "country": "USA",
    "vendor": {
        "id": 253,
        "name": "Tom",
        "email": "tom@gmail.com",
        "phone": "1234567890",
        "rating": 3.5,
        "city": "Delhi",
        "state": "Delhi",
        "country": "India"
    }
}, {
    "id": 56,
    "name": "Orange",
    "type": "Orange",
    "quantity": 500,
    "imageLocation": "https://upload.wikimedia.org/wikipedia/commons/7/7b/Orange-Whole-%26-Split.jpg",
    "description": "Orange description",
    "harvestDate": 1514246400000,
    "shipmentDate": 1519603200000,
    "latitue": 25.468721,
    "longitude": -80.477554,
    "city": "Homestead",
    "state": "FL",
    "country": "USA",
    "vendor": {
        "id": 254,
        "name": "Don",
        "email": "don@gmail.com",
        "phone": "1234567890",
        "rating": 2.5,
        "city": "Delhi",
        "state": "Delhi",
        "country": "India"
    }
}, {
    "id": 57,
    "name": "Tomato",
    "type": "Tomato",
    "quantity": 700,
    "imageLocation": "https://upload.wikimedia.org/wikipedia/commons/8/88/Bright_red_tomato_and_cross_section02.jpg",
    "description": "Tomato description",
    "harvestDate": 1509926400000,
    "shipmentDate": 1515196800000,
    "latitue": 25.468721,
    "longitude": -80.477554,
    "city": "Homestead",
    "state": "FL",
    "country": "USA",
    "vendor": {
        "id": 254,
        "name": "Don",
        "email": "don@gmail.com",
        "phone": "1234567890",
        "rating": 2.5,
        "city": "Delhi",
        "state": "Delhi",
        "country": "India"
    }
}, {
    "id": 58,
    "name": "Potato",
    "type": "Potato",
    "quantity": 900,
    "imageLocation": "https://upload.wikimedia.org/wikipedia/commons/a/ab/Patates.jpg",
    "description": "Potato description",
    "harvestDate": 1506038400000,
    "shipmentDate": 1511308800000,
    "latitue": 25.468721,
    "longitude": -80.477554,
    "city": "Homestead",
    "state": "FL",
    "country": "USA",
    "vendor": {
        "id": 255,
        "name": "Harry",
        "email": "harry@gmail.com",
        "phone": "1234567890",
        "rating": 4.5,
        "city": "Delhi",
        "state": "Delhi",
        "country": "India"
    }
}, {
    "id": 59,
    "name": "Orange",
    "type": "Orange",
    "quantity": 500,
    "imageLocation": "https://upload.wikimedia.org/wikipedia/commons/7/7b/Orange-Whole-%26-Split.jpg",
    "description": "Orange description",
    "harvestDate": 1495238400000,
    "shipmentDate": 1500508800000,
    "latitue": 36.850769,
    "longitude": -76.285873,
    "city": "Norfolk",
    "state": "VA",
    "country": "USA",
    "vendor": {
        "id": 256,
        "name": "Bill",
        "email": "bill@gmail.com",
        "phone": "1234567890",
        "rating": 5.0,
        "city": "Delhi",
        "state": "Delhi",
        "country": "India"
    }
}, {
    "id": 60,
    "name": "Tomato",
    "type": "Tomato",
    "quantity": 700,
    "imageLocation": "https://upload.wikimedia.org/wikipedia/commons/8/88/Bright_red_tomato_and_cross_section02.jpg",
    "description": "Tomato description",
    "harvestDate": 1514160000000,
    "shipmentDate": 1519516800000,
    "latitue": 36.850769,
    "longitude": -76.285873,
    "city": "Norfolk",
    "state": "VA",
    "country": "USA",
    "vendor": {
        "id": 255,
        "name": "Harry",
        "email": "harry@gmail.com",
        "phone": "1234567890",
        "rating": 4.5,
        "city": "Delhi",
        "state": "Delhi",
        "country": "India"
    }
}, {
    "id": 61,
    "name": "Potato",
    "type": "Potato",
    "quantity": 900,
    "imageLocation": "https://upload.wikimedia.org/wikipedia/commons/a/ab/Patates.jpg",
    "description": "Potato description",
    "harvestDate": 1507161600000,
    "shipmentDate": 1512432000000,
    "latitue": 36.850769,
    "longitude": -76.285873,
    "city": "Norfolk",
    "state": "VA",
    "country": "USA",
    "vendor": {
        "id": 254,
        "name": "Don",
        "email": "don@gmail.com",
        "phone": "1234567890",
        "rating": 2.5,
        "city": "Delhi",
        "state": "Delhi",
        "country": "India"
    }
}, {
    "id": 62,
    "name": "Orange",
    "type": "Orange",
    "quantity": 500,
    "imageLocation": "https://upload.wikimedia.org/wikipedia/commons/7/7b/Orange-Whole-%26-Split.jpg",
    "description": "Orange description",
    "harvestDate": 1495929600000,
    "shipmentDate": 1501200000000,
    "latitue": 36.974117,
    "longitude": -122.030792,
    "city": "Santa Cruz",
    "state": "CA",
    "country": "USA",
    "vendor": {
        "id": 255,
        "name": "Harry",
        "email": "harry@gmail.com",
        "phone": "1234567890",
        "rating": 4.5,
        "city": "Delhi",
        "state": "Delhi",
        "country": "India"
    }
}, {
    "id": 63,
    "name": "Tomato",
    "type": "Tomato",
    "quantity": 700,
    "imageLocation": "https://upload.wikimedia.org/wikipedia/commons/8/88/Bright_red_tomato_and_cross_section02.jpg",
    "description": "Tomato description",
    "harvestDate": 1522368000000,
    "shipmentDate": 1527638400000,
    "latitue": 36.974117,
    "longitude": -122.030792,
    "city": "Santa Cruz",
    "state": "CA",
    "country": "USA",
    "vendor": {
        "id": 256,
        "name": "Bill",
        "email": "bill@gmail.com",
        "phone": "1234567890",
        "rating": 5.0,
        "city": "Delhi",
        "state": "Delhi",
        "country": "India"
    }
}, {
    "id": 64,
    "name": "Potato",
    "type": "Potato",
    "quantity": 900,
    "imageLocation": "https://upload.wikimedia.org/wikipedia/commons/a/ab/Patates.jpg",
    "description": "Potato description",
    "harvestDate": 1510876800000,
    "shipmentDate": 1516147200000,
    "latitue": 36.974117,
    "longitude": -122.030792,
    "city": "Santa Cruz",
    "state": "CA",
    "country": "USA",
    "vendor": {
        "id": 254,
        "name": "Don",
        "email": "don@gmail.com",
        "phone": "1234567890",
        "rating": 2.5,
        "city": "Delhi",
        "state": "Delhi",
        "country": "India"
    }
}, {
    "id": 65,
    "name": "Orange",
    "type": "Orange",
    "quantity": 500,
    "imageLocation": "https://upload.wikimedia.org/wikipedia/commons/7/7b/Orange-Whole-%26-Split.jpg",
    "description": "Orange description",
    "harvestDate": 1505174400000,
    "shipmentDate": 1510444800000,
    "latitue": 37.687923,
    "longitude": -122.470207,
    "city": "Daly City",
    "state": "CA",
    "country": "USA",
    "vendor": {
        "id": 255,
        "name": "Harry",
        "email": "harry@gmail.com",
        "phone": "1234567890",
        "rating": 4.5,
        "city": "Delhi",
        "state": "Delhi",
        "country": "India"
    }
}, {
    "id": 66,
    "name": "Tomato",
    "type": "Tomato",
    "quantity": 700,
    "imageLocation": "https://upload.wikimedia.org/wikipedia/commons/8/88/Bright_red_tomato_and_cross_section02.jpg",
    "description": "Tomato description",
    "harvestDate": 1511049600000,
    "shipmentDate": 1516320000000,
    "latitue": 37.687923,
    "longitude": -122.470207,
    "city": "Daly City",
    "state": "CA",
    "country": "USA",
    "vendor": {
        "id": 256,
        "name": "Bill",
        "email": "bill@gmail.com",
        "phone": "1234567890",
        "rating": 5.0,
        "city": "Delhi",
        "state": "Delhi",
        "country": "India"
    }
}, {
    "id": 67,
    "name": "Potato",
    "type": "Potato",
    "quantity": 900,
    "imageLocation": "https://upload.wikimedia.org/wikipedia/commons/a/ab/Patates.jpg",
    "description": "Potato description",
    "harvestDate": 1510012800000,
    "shipmentDate": 1515283200000,
    "latitue": 37.687923,
    "longitude": -122.470207,
    "city": "Daly City",
    "state": "CA",
    "country": "USA",
    "vendor": {
        "id": 255,
        "name": "Harry",
        "email": "harry@gmail.com",
        "phone": "1234567890",
        "rating": 4.5,
        "city": "Delhi",
        "state": "Delhi",
        "country": "India"
    }
}, {
    "id": 68,
    "name": "Orange",
    "type": "Orange",
    "quantity": 500,
    "imageLocation": "https://upload.wikimedia.org/wikipedia/commons/7/7b/Orange-Whole-%26-Split.jpg",
    "description": "Orange description",
    "harvestDate": 1496448000000,
    "shipmentDate": 1501718400000,
    "latitue": 42.902615,
    "longitude": -78.744576,
    "city": "Cheektowaga",
    "state": "NY",
    "country": "USA",
    "vendor": {
        "id": 256,
        "name": "Bill",
        "email": "bill@gmail.com",
        "phone": "1234567890",
        "rating": 5.0,
        "city": "Delhi",
        "state": "Delhi",
        "country": "India"
    }
}, {
    "id": 69,
    "name": "Tomato",
    "type": "Tomato",
    "quantity": 700,
    "imageLocation": "https://upload.wikimedia.org/wikipedia/commons/8/88/Bright_red_tomato_and_cross_section02.jpg",
    "description": "Tomato description",
    "harvestDate": 1502323200000,
    "shipmentDate": 1507593600000,
    "latitue": 42.902615,
    "longitude": -78.744576,
    "city": "Cheektowaga",
    "state": "NY",
    "country": "USA",
    "vendor": {
        "id": 254,
        "name": "Don",
        "email": "don@gmail.com",
        "phone": "1234567890",
        "rating": 2.5,
        "city": "Delhi",
        "state": "Delhi",
        "country": "India"
    }
}, {
    "id": 70,
    "name": "Potato",
    "type": "Potato",
    "quantity": 900,
    "imageLocation": "https://upload.wikimedia.org/wikipedia/commons/a/ab/Patates.jpg",
    "description": "Potato description",
    "harvestDate": 1494201600000,
    "shipmentDate": 1499472000000,
    "latitue": 42.902615,
    "longitude": -78.744576,
    "city": "Cheektowaga",
    "state": "NY",
    "country": "USA",
    "vendor": {
        "id": 256,
        "name": "Bill",
        "email": "bill@gmail.com",
        "phone": "1234567890",
        "rating": 5.0,
        "city": "Delhi",
        "state": "Delhi",
        "country": "India"
    }
}, {
    "id": 71,
    "name": "Orange",
    "type": "Orange",
    "quantity": 500,
    "imageLocation": "https://upload.wikimedia.org/wikipedia/commons/7/7b/Orange-Whole-%26-Split.jpg",
    "description": "Orange description",
    "harvestDate": 1509494400000,
    "shipmentDate": 1514764800000,
    "latitue": 39.932117,
    "longitude": -105.281639,
    "city": "Eldorado Springs",
    "state": "CO",
    "country": "USA",
    "vendor": {
        "id": 253,
        "name": "Tom",
        "email": "tom@gmail.com",
        "phone": "1234567890",
        "rating": 3.5,
        "city": "Delhi",
        "state": "Delhi",
        "country": "India"
    }
}, {
    "id": 72,
    "name": "Tomato",
    "type": "Tomato",
    "quantity": 700,
    "imageLocation": "https://upload.wikimedia.org/wikipedia/commons/8/88/Bright_red_tomato_and_cross_section02.jpg",
    "description": "Tomato description",
    "harvestDate": 1508457600000,
    "shipmentDate": 1513728000000,
    "latitue": 39.932117,
    "longitude": -105.281639,
    "city": "Eldorado Springs",
    "state": "CO",
    "country": "USA",
    "vendor": {
        "id": 256,
        "name": "Bill",
        "email": "bill@gmail.com",
        "phone": "1234567890",
        "rating": 5.0,
        "city": "Delhi",
        "state": "Delhi",
        "country": "India"
    }
}, {
    "id": 73,
    "name": "Potato",
    "type": "Potato",
    "quantity": 900,
    "imageLocation": "https://upload.wikimedia.org/wikipedia/commons/a/ab/Patates.jpg",
    "description": "Potato description",
    "harvestDate": 1495584000000,
    "shipmentDate": 1500854400000,
    "latitue": 39.932117,
    "longitude": -105.281639,
    "city": "Eldorado Springs",
    "state": "CO",
    "country": "USA",
    "vendor": {
        "id": 255,
        "name": "Harry",
        "email": "harry@gmail.com",
        "phone": "1234567890",
        "rating": 4.5,
        "city": "Delhi",
        "state": "Delhi",
        "country": "India"
    }
}, {
    "id": 74,
    "name": "Orange",
    "type": "Orange",
    "quantity": 500,
    "imageLocation": "https://upload.wikimedia.org/wikipedia/commons/7/7b/Orange-Whole-%26-Split.jpg",
    "description": "Orange description",
    "harvestDate": 1511740800000,
    "shipmentDate": 1517011200000,
    "latitue": 33.347317,
    "longitude": 120.163658,
    "city": "Yancheng",
    "state": "Jiangsu",
    "country": "China",
    "vendor": {
        "id": 255,
        "name": "Harry",
        "email": "harry@gmail.com",
        "phone": "1234567890",
        "rating": 4.5,
        "city": "Delhi",
        "state": "Delhi",
        "country": "India"
    }
}, {
    "id": 75,
    "name": "Tomato",
    "type": "Tomato",
    "quantity": 700,
    "imageLocation": "https://upload.wikimedia.org/wikipedia/commons/8/88/Bright_red_tomato_and_cross_section02.jpg",
    "description": "Tomato description",
    "harvestDate": 1517443200000,
    "shipmentDate": 1522540800000,
    "latitue": 33.347317,
    "longitude": 120.163658,
    "city": "Yancheng",
    "state": "Jiangsu",
    "country": "China",
    "vendor": {
        "id": 255,
        "name": "Harry",
        "email": "harry@gmail.com",
        "phone": "1234567890",
        "rating": 4.5,
        "city": "Delhi",
        "state": "Delhi",
        "country": "India"
    }
}, {
    "id": 76,
    "name": "Potato",
    "type": "Potato",
    "quantity": 900,
    "imageLocation": "https://upload.wikimedia.org/wikipedia/commons/a/ab/Patates.jpg",
    "description": "Potato description",
    "harvestDate": 1522195200000,
    "shipmentDate": 1527465600000,
    "latitue": 33.347317,
    "longitude": 120.163658,
    "city": "Yancheng",
    "state": "Jiangsu",
    "country": "China",
    "vendor": {
        "id": 254,
        "name": "Don",
        "email": "don@gmail.com",
        "phone": "1234567890",
        "rating": 2.5,
        "city": "Delhi",
        "state": "Delhi",
        "country": "India"
    }
}, {
    "id": 77,
    "name": "Orange",
    "type": "Orange",
    "quantity": 500,
    "imageLocation": "https://upload.wikimedia.org/wikipedia/commons/7/7b/Orange-Whole-%26-Split.jpg",
    "description": "Orange description",
    "harvestDate": 1513296000000,
    "shipmentDate": 1518652800000,
    "latitue": 22.542883,
    "longitude": 114.062996,
    "city": "Shenzhen",
    "state": "Guangdong",
    "country": "China",
    "vendor": {
        "id": 253,
        "name": "Tom",
        "email": "tom@gmail.com",
        "phone": "1234567890",
        "rating": 3.5,
        "city": "Delhi",
        "state": "Delhi",
        "country": "India"
    }
}, {
    "id": 78,
    "name": "Tomato",
    "type": "Tomato",
    "quantity": 700,
    "imageLocation": "https://upload.wikimedia.org/wikipedia/commons/8/88/Bright_red_tomato_and_cross_section02.jpg",
    "description": "Tomato description",
    "harvestDate": 1506729600000,
    "shipmentDate": 1512000000000,
    "latitue": 22.542883,
    "longitude": 114.062996,
    "city": "Shenzhen",
    "state": "Guangdong",
    "country": "China",
    "vendor": {
        "id": 253,
        "name": "Tom",
        "email": "tom@gmail.com",
        "phone": "1234567890",
        "rating": 3.5,
        "city": "Delhi",
        "state": "Delhi",
        "country": "India"
    }
}, {
    "id": 79,
    "name": "Potato",
    "type": "Potato",
    "quantity": 900,
    "imageLocation": "https://upload.wikimedia.org/wikipedia/commons/a/ab/Patates.jpg",
    "description": "Potato description",
    "harvestDate": 1503964800000,
    "shipmentDate": 1509235200000,
    "latitue": 22.542883,
    "longitude": 114.062996,
    "city": "Shenzhen",
    "state": "Guangdong",
    "country": "China",
    "vendor": {
        "id": 254,
        "name": "Don",
        "email": "don@gmail.com",
        "phone": "1234567890",
        "rating": 2.5,
        "city": "Delhi",
        "state": "Delhi",
        "country": "India"
    }
}, {
    "id": 80,
    "name": "Potato",
    "type": "Potato",
    "quantity": 900,
    "imageLocation": "https://upload.wikimedia.org/wikipedia/commons/a/ab/Patates.jpg",
    "description": "Potato description",
    "harvestDate": 1495843200000,
    "shipmentDate": 1501113600000,
    "latitue": -27.471226,
    "longitude": -58.839584,
    "city": "Corrientes",
    "state": "Corrientes Province",
    "country": "Argentina",
    "vendor": {
        "id": 254,
        "name": "Don",
        "email": "don@gmail.com",
        "phone": "1234567890",
        "rating": 2.5,
        "city": "Delhi",
        "state": "Delhi",
        "country": "India"
    }
}, {
    "id": 83,
    "name": "Orange",
    "type": "Orange",
    "quantity": 500,
    "imageLocation": "https://upload.wikimedia.org/wikipedia/commons/7/7b/Orange-Whole-%26-Split.jpg",
    "description": "Orange description",
    "harvestDate": 1506297600000,
    "shipmentDate": 1511568000000,
    "latitue": 24.479834,
    "longitude": 118.089424,
    "city": "Xiamen",
    "state": "Fujian",
    "country": "China",
    "vendor": {
        "id": 255,
        "name": "Harry",
        "email": "harry@gmail.com",
        "phone": "1234567890",
        "rating": 4.5,
        "city": "Delhi",
        "state": "Delhi",
        "country": "India"
    }
}, {
    "id": 84,
    "name": "Tomato",
    "type": "Tomato",
    "quantity": 700,
    "imageLocation": "https://upload.wikimedia.org/wikipedia/commons/8/88/Bright_red_tomato_and_cross_section02.jpg",
    "description": "Tomato description",
    "harvestDate": 1501286400000,
    "shipmentDate": 1506643200000,
    "latitue": 24.479834,
    "longitude": 118.089424,
    "city": "Xiamen",
    "state": "Fujian",
    "country": "China",
    "vendor": {
        "id": 254,
        "name": "Don",
        "email": "don@gmail.com",
        "phone": "1234567890",
        "rating": 2.5,
        "city": "Delhi",
        "state": "Delhi",
        "country": "India"
    }
}, {
    "id": 85,
    "name": "Potato",
    "type": "Potato",
    "quantity": 900,
    "imageLocation": "https://upload.wikimedia.org/wikipedia/commons/a/ab/Patates.jpg",
    "description": "Potato description",
    "harvestDate": 1520553600000,
    "shipmentDate": 1525824000000,
    "latitue": 24.479834,
    "longitude": 118.089424,
    "city": "Xiamen",
    "state": "Fujian",
    "country": "China",
    "vendor": {
        "id": 256,
        "name": "Bill",
        "email": "bill@gmail.com",
        "phone": "1234567890",
        "rating": 5.0,
        "city": "Delhi",
        "state": "Delhi",
        "country": "India"
    }
}, {
    "id": 86,
    "name": "Orange",
    "type": "Orange",
    "quantity": 500,
    "imageLocation": "https://upload.wikimedia.org/wikipedia/commons/7/7b/Orange-Whole-%26-Split.jpg",
    "description": "Orange description",
    "harvestDate": 1504656000000,
    "shipmentDate": 1509926400000,
    "latitue": 43.588348,
    "longitude": 39.729996,
    "city": "Sochi",
    "state": "Krasnodar Region",
    "country": "Russia",
    "vendor": {
        "id": 256,
        "name": "Bill",
        "email": "bill@gmail.com",
        "phone": "1234567890",
        "rating": 5.0,
        "city": "Delhi",
        "state": "Delhi",
        "country": "India"
    }
}, {
    "id": 87,
    "name": "Tomato",
    "type": "Tomato",
    "quantity": 700,
    "imageLocation": "https://upload.wikimedia.org/wikipedia/commons/8/88/Bright_red_tomato_and_cross_section02.jpg",
    "description": "Tomato description",
    "harvestDate": 1517616000000,
    "shipmentDate": 1522713600000,
    "latitue": 43.588348,
    "longitude": 39.729996,
    "city": "Sochi",
    "state": "Krasnodar Region",
    "country": "Russia",
    "vendor": {
        "id": 253,
        "name": "Tom",
        "email": "tom@gmail.com",
        "phone": "1234567890",
        "rating": 3.5,
        "city": "Delhi",
        "state": "Delhi",
        "country": "India"
    }
}, {
    "id": 88,
    "name": "Potato",
    "type": "Potato",
    "quantity": 900,
    "imageLocation": "https://upload.wikimedia.org/wikipedia/commons/a/ab/Patates.jpg",
    "description": "Potato description",
    "harvestDate": 1514937600000,
    "shipmentDate": 1520035200000,
    "latitue": 43.588348,
    "longitude": 39.729996,
    "city": "Sochi",
    "state": "Krasnodar Region",
    "country": "Russia",
    "vendor": {
        "id": 255,
        "name": "Harry",
        "email": "harry@gmail.com",
        "phone": "1234567890",
        "rating": 4.5,
        "city": "Delhi",
        "state": "Delhi",
        "country": "India"
    }
}, {
    "id": 89,
    "name": "Orange",
    "type": "Orange",
    "quantity": 500,
    "imageLocation": "https://upload.wikimedia.org/wikipedia/commons/7/7b/Orange-Whole-%26-Split.jpg",
    "description": "Orange description",
    "harvestDate": 1506816000000,
    "shipmentDate": 1512086400000,
    "latitue": 59.560246,
    "longitude": 150.798599,
    "city": "Magadan",
    "state": "Magadan Province",
    "country": "Russia",
    "vendor": {
        "id": 255,
        "name": "Harry",
        "email": "harry@gmail.com",
        "phone": "1234567890",
        "rating": 4.5,
        "city": "Delhi",
        "state": "Delhi",
        "country": "India"
    }
}, {
    "id": 90,
    "name": "Tomato",
    "type": "Tomato",
    "quantity": 700,
    "imageLocation": "https://upload.wikimedia.org/wikipedia/commons/8/88/Bright_red_tomato_and_cross_section02.jpg",
    "description": "Tomato description",
    "harvestDate": 1510963200000,
    "shipmentDate": 1516233600000,
    "latitue": 59.560246,
    "longitude": 150.798599,
    "city": "Magadan",
    "state": "Magadan Province",
    "country": "Russia",
    "vendor": {
        "id": 254,
        "name": "Don",
        "email": "don@gmail.com",
        "phone": "1234567890",
        "rating": 2.5,
        "city": "Delhi",
        "state": "Delhi",
        "country": "India"
    }
}, {
    "id": 91,
    "name": "Potato",
    "type": "Potato",
    "quantity": 900,
    "imageLocation": "https://upload.wikimedia.org/wikipedia/commons/a/ab/Patates.jpg",
    "description": "Potato description",
    "harvestDate": 1492560000000,
    "shipmentDate": 1497830400000,
    "latitue": 59.560246,
    "longitude": 150.798599,
    "city": "Magadan",
    "state": "Magadan Province",
    "country": "Russia",
    "vendor": {
        "id": 256,
        "name": "Bill",
        "email": "bill@gmail.com",
        "phone": "1234567890",
        "rating": 5.0,
        "city": "Delhi",
        "state": "Delhi",
        "country": "India"
    }
}, {
    "id": 92,
    "name": "Orange",
    "type": "Orange",
    "quantity": 500,
    "imageLocation": "https://upload.wikimedia.org/wikipedia/commons/7/7b/Orange-Whole-%26-Split.jpg",
    "description": "Orange description",
    "harvestDate": 1521072000000,
    "shipmentDate": 1526342400000,
    "latitue": 64.542465,
    "longitude": 40.537319,
    "city": "Arkhangelsk",
    "state": "Arkhangelsk Oblast",
    "country": "Russia",
    "vendor": {
        "id": 253,
        "name": "Tom",
        "email": "tom@gmail.com",
        "phone": "1234567890",
        "rating": 3.5,
        "city": "Delhi",
        "state": "Delhi",
        "country": "India"
    }
}, {
    "id": 93,
    "name": "Tomato",
    "type": "Tomato",
    "quantity": 700,
    "imageLocation": "https://upload.wikimedia.org/wikipedia/commons/8/88/Bright_red_tomato_and_cross_section02.jpg",
    "description": "Tomato description",
    "harvestDate": 1507939200000,
    "shipmentDate": 1513209600000,
    "latitue": 64.542465,
    "longitude": 40.537319,
    "city": "Arkhangelsk",
    "state": "Arkhangelsk Oblast",
    "country": "Russia",
    "vendor": {
        "id": 254,
        "name": "Don",
        "email": "don@gmail.com",
        "phone": "1234567890",
        "rating": 2.5,
        "city": "Delhi",
        "state": "Delhi",
        "country": "India"
    }
}, {
    "id": 94,
    "name": "Potato",
    "type": "Potato",
    "quantity": 900,
    "imageLocation": "https://upload.wikimedia.org/wikipedia/commons/a/ab/Patates.jpg",
    "description": "Potato description",
    "harvestDate": 1507507200000,
    "shipmentDate": 1512777600000,
    "latitue": 64.542465,
    "longitude": 40.537319,
    "city": "Arkhangelsk",
    "state": "Arkhangelsk Oblast",
    "country": "Russia",
    "vendor": {
        "id": 256,
        "name": "Bill",
        "email": "bill@gmail.com",
        "phone": "1234567890",
        "rating": 5.0,
        "city": "Delhi",
        "state": "Delhi",
        "country": "India"
    }
}, {
    "id": 95,
    "name": "Orange",
    "type": "Orange",
    "quantity": 500,
    "imageLocation": "https://upload.wikimedia.org/wikipedia/commons/7/7b/Orange-Whole-%26-Split.jpg",
    "description": "Orange description",
    "harvestDate": 1496534400000,
    "shipmentDate": 1501804800000,
    "latitue": 57.767193,
    "longitude": 40.976257,
    "city": "Kostroma",
    "state": "Kostroma Province",
    "country": "Russia",
    "vendor": {
        "id": 253,
        "name": "Tom",
        "email": "tom@gmail.com",
        "phone": "1234567890",
        "rating": 3.5,
        "city": "Delhi",
        "state": "Delhi",
        "country": "India"
    }
}, {
    "id": 96,
    "name": "Tomato",
    "type": "Tomato",
    "quantity": 700,
    "imageLocation": "https://upload.wikimedia.org/wikipedia/commons/8/88/Bright_red_tomato_and_cross_section02.jpg",
    "description": "Tomato description",
    "harvestDate": 1512000000000,
    "shipmentDate": 1517270400000,
    "latitue": 57.767193,
    "longitude": 40.976257,
    "city": "Kostroma",
    "state": "Kostroma Province",
    "country": "Russia",
    "vendor": {
        "id": 255,
        "name": "Harry",
        "email": "harry@gmail.com",
        "phone": "1234567890",
        "rating": 4.5,
        "city": "Delhi",
        "state": "Delhi",
        "country": "India"
    }
}, {
    "id": 97,
    "name": "Potato",
    "type": "Potato",
    "quantity": 900,
    "imageLocation": "https://upload.wikimedia.org/wikipedia/commons/a/ab/Patates.jpg",
    "description": "Potato description",
    "harvestDate": 1511308800000,
    "shipmentDate": 1516579200000,
    "latitue": 57.767193,
    "longitude": 40.976257,
    "city": "Kostroma",
    "state": "Kostroma Province",
    "country": "Russia",
    "vendor": {
        "id": 254,
        "name": "Don",
        "email": "don@gmail.com",
        "phone": "1234567890",
        "rating": 2.5,
        "city": "Delhi",
        "state": "Delhi",
        "country": "India"
    }
}, {
    "id": 98,
    "name": "Orange",
    "type": "Orange",
    "quantity": 500,
    "imageLocation": "https://upload.wikimedia.org/wikipedia/commons/7/7b/Orange-Whole-%26-Split.jpg",
    "description": "Orange description",
    "harvestDate": 1507420800000,
    "shipmentDate": 1512691200000,
    "latitue": 61.666668,
    "longitude": 50.816666,
    "city": "Syktyvkar",
    "state": "Komi Republic",
    "country": "Russia",
    "vendor": {
        "id": 255,
        "name": "Harry",
        "email": "harry@gmail.com",
        "phone": "1234567890",
        "rating": 4.5,
        "city": "Delhi",
        "state": "Delhi",
        "country": "India"
    }
}, {
    "id": 99,
    "name": "Tomato",
    "type": "Tomato",
    "quantity": 700,
    "imageLocation": "https://upload.wikimedia.org/wikipedia/commons/8/88/Bright_red_tomato_and_cross_section02.jpg",
    "description": "Tomato description",
    "harvestDate": 1508716800000,
    "shipmentDate": 1513987200000,
    "latitue": 61.666668,
    "longitude": 50.816666,
    "city": "Syktyvkar",
    "state": "Komi Republic",
    "country": "Russia",
    "vendor": {
        "id": 253,
        "name": "Tom",
        "email": "tom@gmail.com",
        "phone": "1234567890",
        "rating": 3.5,
        "city": "Delhi",
        "state": "Delhi",
        "country": "India"
    }
}, {
    "id": 100,
    "name": "Potato",
    "type": "Potato",
    "quantity": 900,
    "imageLocation": "https://upload.wikimedia.org/wikipedia/commons/a/ab/Patates.jpg",
    "description": "Potato description",
    "harvestDate": 1523059200000,
    "shipmentDate": 1528329600000,
    "latitue": 61.666668,
    "longitude": 50.816666,
    "city": "Syktyvkar",
    "state": "Komi Republic",
    "country": "Russia",
    "vendor": {
        "id": 253,
        "name": "Tom",
        "email": "tom@gmail.com",
        "phone": "1234567890",
        "rating": 3.5,
        "city": "Delhi",
        "state": "Delhi",
        "country": "India"
    }
}, {
    "id": 101,
    "name": "Orange",
    "type": "Orange",
    "quantity": 500,
    "imageLocation": "https://upload.wikimedia.org/wikipedia/commons/7/7b/Orange-Whole-%26-Split.jpg",
    "description": "Orange description",
    "harvestDate": 1511049600000,
    "shipmentDate": 1516320000000,
    "latitue": 56.633331,
    "longitude": 47.866669,
    "city": "Yoshkar-Ola",
    "state": "Mari El",
    "country": "Russia",
    "vendor": {
        "id": 253,
        "name": "Tom",
        "email": "tom@gmail.com",
        "phone": "1234567890",
        "rating": 3.5,
        "city": "Delhi",
        "state": "Delhi",
        "country": "India"
    }
}, {
    "id": 102,
    "name": "Tomato",
    "type": "Tomato",
    "quantity": 700,
    "imageLocation": "https://upload.wikimedia.org/wikipedia/commons/8/88/Bright_red_tomato_and_cross_section02.jpg",
    "description": "Tomato description",
    "harvestDate": 1500681600000,
    "shipmentDate": 1506038400000,
    "latitue": 56.633331,
    "longitude": 47.866669,
    "city": "Yoshkar-Ola",
    "state": "Mari El",
    "country": "Russia",
    "vendor": {
        "id": 255,
        "name": "Harry",
        "email": "harry@gmail.com",
        "phone": "1234567890",
        "rating": 4.5,
        "city": "Delhi",
        "state": "Delhi",
        "country": "India"
    }
}, {
    "id": 103,
    "name": "Potato",
    "type": "Potato",
    "quantity": 900,
    "imageLocation": "https://upload.wikimedia.org/wikipedia/commons/a/ab/Patates.jpg",
    "description": "Potato description",
    "harvestDate": 1522454400000,
    "shipmentDate": 1527724800000,
    "latitue": 56.633331,
    "longitude": 47.866669,
    "city": "Yoshkar-Ola",
    "state": "Mari El",
    "country": "Russia",
    "vendor": {
        "id": 256,
        "name": "Bill",
        "email": "bill@gmail.com",
        "phone": "1234567890",
        "rating": 5.0,
        "city": "Delhi",
        "state": "Delhi",
        "country": "India"
    }
}, {
    "id": 104,
    "name": "Orange",
    "type": "Orange",
    "quantity": 500,
    "imageLocation": "https://upload.wikimedia.org/wikipedia/commons/7/7b/Orange-Whole-%26-Split.jpg",
    "description": "Orange description",
    "harvestDate": 1504137600000,
    "shipmentDate": 1509408000000,
    "latitue": 59.566666,
    "longitude": 150.800003,
    "city": "Magadan",
    "state": "Magadan Province",
    "country": "Russia",
    "vendor": {
        "id": 255,
        "name": "Harry",
        "email": "harry@gmail.com",
        "phone": "1234567890",
        "rating": 4.5,
        "city": "Delhi",
        "state": "Delhi",
        "country": "India"
    }
}, {
    "id": 105,
    "name": "Tomato",
    "type": "Tomato",
    "quantity": 700,
    "imageLocation": "https://upload.wikimedia.org/wikipedia/commons/8/88/Bright_red_tomato_and_cross_section02.jpg",
    "description": "Tomato description",
    "harvestDate": 1494374400000,
    "shipmentDate": 1499644800000,
    "latitue": 59.566666,
    "longitude": 150.800003,
    "city": "Magadan",
    "state": "Magadan Province",
    "country": "Russia",
    "vendor": {
        "id": 255,
        "name": "Harry",
        "email": "harry@gmail.com",
        "phone": "1234567890",
        "rating": 4.5,
        "city": "Delhi",
        "state": "Delhi",
        "country": "India"
    }
}, {
    "id": 106,
    "name": "Potato",
    "type": "Potato",
    "quantity": 900,
    "imageLocation": "https://upload.wikimedia.org/wikipedia/commons/a/ab/Patates.jpg",
    "description": "Potato description",
    "harvestDate": 1517011200000,
    "shipmentDate": 1522108800000,
    "latitue": 59.566666,
    "longitude": 150.800003,
    "city": "Magadan",
    "state": "Magadan Province",
    "country": "Russia",
    "vendor": {
        "id": 254,
        "name": "Don",
        "email": "don@gmail.com",
        "phone": "1234567890",
        "rating": 2.5,
        "city": "Delhi",
        "state": "Delhi",
        "country": "India"
    }
}, {
    "id": 107,
    "name": "Orange",
    "type": "Orange",
    "quantity": 500,
    "imageLocation": "https://upload.wikimedia.org/wikipedia/commons/7/7b/Orange-Whole-%26-Split.jpg",
    "description": "Orange description",
    "harvestDate": 1516060800000,
    "shipmentDate": 1521158400000,
    "latitue": -34.425072,
    "longitude": 150.893143,
    "city": "Wollongong",
    "state": "NSW",
    "country": "Australia",
    "vendor": {
        "id": 254,
        "name": "Don",
        "email": "don@gmail.com",
        "phone": "1234567890",
        "rating": 2.5,
        "city": "Delhi",
        "state": "Delhi",
        "country": "India"
    }
}, {
    "id": 108,
    "name": "Tomato",
    "type": "Tomato",
    "quantity": 700,
    "imageLocation": "https://upload.wikimedia.org/wikipedia/commons/8/88/Bright_red_tomato_and_cross_section02.jpg",
    "description": "Tomato description",
    "harvestDate": 1494892800000,
    "shipmentDate": 1500163200000,
    "latitue": -34.425072,
    "longitude": 150.893143,
    "city": "Wollongong",
    "state": "NSW",
    "country": "Australia",
    "vendor": {
        "id": 253,
        "name": "Tom",
        "email": "tom@gmail.com",
        "phone": "1234567890",
        "rating": 3.5,
        "city": "Delhi",
        "state": "Delhi",
        "country": "India"
    }
}, {
    "id": 109,
    "name": "Potato",
    "type": "Potato",
    "quantity": 900,
    "imageLocation": "https://upload.wikimedia.org/wikipedia/commons/a/ab/Patates.jpg",
    "description": "Potato description",
    "harvestDate": 1497225600000,
    "shipmentDate": 1502496000000,
    "latitue": -34.425072,
    "longitude": 150.893143,
    "city": "Wollongong",
    "state": "NSW",
    "country": "Australia",
    "vendor": {
        "id": 254,
        "name": "Don",
        "email": "don@gmail.com",
        "phone": "1234567890",
        "rating": 2.5,
        "city": "Delhi",
        "state": "Delhi",
        "country": "India"
    }
}, {
    "id": 110,
    "name": "Orange",
    "type": "Orange",
    "quantity": 500,
    "imageLocation": "https://upload.wikimedia.org/wikipedia/commons/7/7b/Orange-Whole-%26-Split.jpg",
    "description": "Orange description",
    "harvestDate": 1511222400000,
    "shipmentDate": 1516492800000,
    "latitue": -33.683212,
    "longitude": 151.224396,
    "city": "Terrey Hills",
    "state": "NSW",
    "country": "Australia",
    "vendor": {
        "id": 254,
        "name": "Don",
        "email": "don@gmail.com",
        "phone": "1234567890",
        "rating": 2.5,
        "city": "Delhi",
        "state": "Delhi",
        "country": "India"
    }
}, {
    "id": 111,
    "name": "Tomato",
    "type": "Tomato",
    "quantity": 700,
    "imageLocation": "https://upload.wikimedia.org/wikipedia/commons/8/88/Bright_red_tomato_and_cross_section02.jpg",
    "description": "Tomato description",
    "harvestDate": 1517875200000,
    "shipmentDate": 1522972800000,
    "latitue": -33.683212,
    "longitude": 151.224396,
    "city": "Terrey Hills",
    "state": "NSW",
    "country": "Australia",
    "vendor": {
        "id": 253,
        "name": "Tom",
        "email": "tom@gmail.com",
        "phone": "1234567890",
        "rating": 3.5,
        "city": "Delhi",
        "state": "Delhi",
        "country": "India"
    }
}, {
    "id": 112,
    "name": "Potato",
    "type": "Potato",
    "quantity": 900,
    "imageLocation": "https://upload.wikimedia.org/wikipedia/commons/a/ab/Patates.jpg",
    "description": "Potato description",
    "harvestDate": 1511740800000,
    "shipmentDate": 1517011200000,
    "latitue": -33.683212,
    "longitude": 151.224396,
    "city": "Terrey Hills",
    "state": "NSW",
    "country": "Australia",
    "vendor": {
        "id": 256,
        "name": "Bill",
        "email": "bill@gmail.com",
        "phone": "1234567890",
        "rating": 5.0,
        "city": "Delhi",
        "state": "Delhi",
        "country": "India"
    }
}, {
    "id": 113,
    "name": "Orange",
    "type": "Orange",
    "quantity": 500,
    "imageLocation": "https://upload.wikimedia.org/wikipedia/commons/7/7b/Orange-Whole-%26-Split.jpg",
    "description": "Orange description",
    "harvestDate": 1508457600000,
    "shipmentDate": 1513728000000,
    "latitue": -33.91729,
    "longitude": 151.035889,
    "city": "Bankstown",
    "state": "NSW",
    "country": "Australia",
    "vendor": {
        "id": 253,
        "name": "Tom",
        "email": "tom@gmail.com",
        "phone": "1234567890",
        "rating": 3.5,
        "city": "Delhi",
        "state": "Delhi",
        "country": "India"
    }
}, {
    "id": 114,
    "name": "Tomato",
    "type": "Tomato",
    "quantity": 700,
    "imageLocation": "https://upload.wikimedia.org/wikipedia/commons/8/88/Bright_red_tomato_and_cross_section02.jpg",
    "description": "Tomato description",
    "harvestDate": 1508630400000,
    "shipmentDate": 1513900800000,
    "latitue": -33.91729,
    "longitude": 151.035889,
    "city": "Bankstown",
    "state": "NSW",
    "country": "Australia",
    "vendor": {
        "id": 255,
        "name": "Harry",
        "email": "harry@gmail.com",
        "phone": "1234567890",
        "rating": 4.5,
        "city": "Delhi",
        "state": "Delhi",
        "country": "India"
    }
}, {
    "id": 115,
    "name": "Potato",
    "type": "Potato",
    "quantity": 900,
    "imageLocation": "https://upload.wikimedia.org/wikipedia/commons/a/ab/Patates.jpg",
    "description": "Potato description",
    "harvestDate": 1498435200000,
    "shipmentDate": 1503705600000,
    "latitue": -33.91729,
    "longitude": 151.035889,
    "city": "Bankstown",
    "state": "NSW",
    "country": "Australia",
    "vendor": {
        "id": 254,
        "name": "Don",
        "email": "don@gmail.com",
        "phone": "1234567890",
        "rating": 2.5,
        "city": "Delhi",
        "state": "Delhi",
        "country": "India"
    }
}, {
    "id": 116,
    "name": "Orange",
    "type": "Orange",
    "quantity": 500,
    "imageLocation": "https://upload.wikimedia.org/wikipedia/commons/7/7b/Orange-Whole-%26-Split.jpg",
    "description": "Orange description",
    "harvestDate": 1495670400000,
    "shipmentDate": 1500940800000,
    "latitue": -33.80769,
    "longitude": 150.987274,
    "city": "Westmead",
    "state": "NSW",
    "country": "Australia",
    "vendor": {
        "id": 253,
        "name": "Tom",
        "email": "tom@gmail.com",
        "phone": "1234567890",
        "rating": 3.5,
        "city": "Delhi",
        "state": "Delhi",
        "country": "India"
    }
}, {
    "id": 117,
    "name": "Tomato",
    "type": "Tomato",
    "quantity": 700,
    "imageLocation": "https://upload.wikimedia.org/wikipedia/commons/8/88/Bright_red_tomato_and_cross_section02.jpg",
    "description": "Tomato description",
    "harvestDate": 1510531200000,
    "shipmentDate": 1515801600000,
    "latitue": -33.80769,
    "longitude": 150.987274,
    "city": "Westmead",
    "state": "NSW",
    "country": "Australia",
    "vendor": {
        "id": 256,
        "name": "Bill",
        "email": "bill@gmail.com",
        "phone": "1234567890",
        "rating": 5.0,
        "city": "Delhi",
        "state": "Delhi",
        "country": "India"
    }
}, {
    "id": 118,
    "name": "Potato",
    "type": "Potato",
    "quantity": 900,
    "imageLocation": "https://upload.wikimedia.org/wikipedia/commons/a/ab/Patates.jpg",
    "description": "Potato description",
    "harvestDate": 1518307200000,
    "shipmentDate": 1523404800000,
    "latitue": -33.80769,
    "longitude": 150.987274,
    "city": "Westmead",
    "state": "NSW",
    "country": "Australia",
    "vendor": {
        "id": 256,
        "name": "Bill",
        "email": "bill@gmail.com",
        "phone": "1234567890",
        "rating": 5.0,
        "city": "Delhi",
        "state": "Delhi",
        "country": "India"
    }
}, {
    "id": 119,
    "name": "Orange",
    "type": "Orange",
    "quantity": 500,
    "imageLocation": "https://upload.wikimedia.org/wikipedia/commons/7/7b/Orange-Whole-%26-Split.jpg",
    "description": "Orange description",
    "harvestDate": 1512777600000,
    "shipmentDate": 1518134400000,
    "latitue": -27.470125,
    "longitude": 153.021072,
    "city": "Brisbane",
    "state": "QLD",
    "country": "Australia",
    "vendor": {
        "id": 254,
        "name": "Don",
        "email": "don@gmail.com",
        "phone": "1234567890",
        "rating": 2.5,
        "city": "Delhi",
        "state": "Delhi",
        "country": "India"
    }
}, {
    "id": 120,
    "name": "Tomato",
    "type": "Tomato",
    "quantity": 700,
    "imageLocation": "https://upload.wikimedia.org/wikipedia/commons/8/88/Bright_red_tomato_and_cross_section02.jpg",
    "description": "Tomato description",
    "harvestDate": 1504137600000,
    "shipmentDate": 1509408000000,
    "latitue": -27.470125,
    "longitude": 153.021072,
    "city": "Brisbane",
    "state": "QLD",
    "country": "Australia",
    "vendor": {
        "id": 253,
        "name": "Tom",
        "email": "tom@gmail.com",
        "phone": "1234567890",
        "rating": 3.5,
        "city": "Delhi",
        "state": "Delhi",
        "country": "India"
    }
}, {
    "id": 121,
    "name": "Potato",
    "type": "Potato",
    "quantity": 900,
    "imageLocation": "https://upload.wikimedia.org/wikipedia/commons/a/ab/Patates.jpg",
    "description": "Potato description",
    "harvestDate": 1503878400000,
    "shipmentDate": 1509148800000,
    "latitue": -27.470125,
    "longitude": 153.021072,
    "city": "Brisbane",
    "state": "QLD",
    "country": "Australia",
    "vendor": {
        "id": 255,
        "name": "Harry",
        "email": "harry@gmail.com",
        "phone": "1234567890",
        "rating": 4.5,
        "city": "Delhi",
        "state": "Delhi",
        "country": "India"
    }
}, {
    "id": 122,
    "name": "Orange",
    "type": "Orange",
    "quantity": 500,
    "imageLocation": "https://upload.wikimedia.org/wikipedia/commons/7/7b/Orange-Whole-%26-Split.jpg",
    "description": "Orange description",
    "harvestDate": 1494633600000,
    "shipmentDate": 1499904000000,
    "latitue": -27.529953,
    "longitude": 152.407181,
    "city": "Glenore Grove",
    "state": "Queensland",
    "country": "Australia",
    "vendor": {
        "id": 254,
        "name": "Don",
        "email": "don@gmail.com",
        "phone": "1234567890",
        "rating": 2.5,
        "city": "Delhi",
        "state": "Delhi",
        "country": "India"
    }
}, {
    "id": 123,
    "name": "Tomato",
    "type": "Tomato",
    "quantity": 700,
    "imageLocation": "https://upload.wikimedia.org/wikipedia/commons/8/88/Bright_red_tomato_and_cross_section02.jpg",
    "description": "Tomato description",
    "harvestDate": 1494201600000,
    "shipmentDate": 1499472000000,
    "latitue": -27.529953,
    "longitude": 152.407181,
    "city": "Glenore Grove",
    "state": "Queensland",
    "country": "Australia",
    "vendor": {
        "id": 255,
        "name": "Harry",
        "email": "harry@gmail.com",
        "phone": "1234567890",
        "rating": 4.5,
        "city": "Delhi",
        "state": "Delhi",
        "country": "India"
    }
}, {
    "id": 124,
    "name": "Potato",
    "type": "Potato",
    "quantity": 900,
    "imageLocation": "https://upload.wikimedia.org/wikipedia/commons/a/ab/Patates.jpg",
    "description": "Potato description",
    "harvestDate": 1514678400000,
    "shipmentDate": 1519776000000,
    "latitue": -27.529953,
    "longitude": 152.407181,
    "city": "Glenore Grove",
    "state": "Queensland",
    "country": "Australia",
    "vendor": {
        "id": 254,
        "name": "Don",
        "email": "don@gmail.com",
        "phone": "1234567890",
        "rating": 2.5,
        "city": "Delhi",
        "state": "Delhi",
        "country": "India"
    }
}, {
    "id": 125,
    "name": "Orange",
    "type": "Orange",
    "quantity": 500,
    "imageLocation": "https://upload.wikimedia.org/wikipedia/commons/7/7b/Orange-Whole-%26-Split.jpg",
    "description": "Orange description",
    "harvestDate": 1493337600000,
    "shipmentDate": 1498608000000,
    "latitue": 42.697285,
    "longitude": 9.450881,
    "city": "Bastia",
    "state": "the Haute-Corse",
    "country": "France",
    "vendor": {
        "id": 256,
        "name": "Bill",
        "email": "bill@gmail.com",
        "phone": "1234567890",
        "rating": 5.0,
        "city": "Delhi",
        "state": "Delhi",
        "country": "India"
    }
}, {
    "id": 126,
    "name": "Tomato",
    "type": "Tomato",
    "quantity": 700,
    "imageLocation": "https://upload.wikimedia.org/wikipedia/commons/8/88/Bright_red_tomato_and_cross_section02.jpg",
    "description": "Tomato description",
    "harvestDate": 1506124800000,
    "shipmentDate": 1511395200000,
    "latitue": 42.697285,
    "longitude": 9.450881,
    "city": "Bastia",
    "state": "the Haute-Corse",
    "country": "France",
    "vendor": {
        "id": 255,
        "name": "Harry",
        "email": "harry@gmail.com",
        "phone": "1234567890",
        "rating": 4.5,
        "city": "Delhi",
        "state": "Delhi",
        "country": "India"
    }
}, {
    "id": 127,
    "name": "Potato",
    "type": "Potato",
    "quantity": 900,
    "imageLocation": "https://upload.wikimedia.org/wikipedia/commons/a/ab/Patates.jpg",
    "description": "Potato description",
    "harvestDate": 1517443200000,
    "shipmentDate": 1522540800000,
    "latitue": 42.697285,
    "longitude": 9.450881,
    "city": "Bastia",
    "state": "the Haute-Corse",
    "country": "France",
    "vendor": {
        "id": 256,
        "name": "Bill",
        "email": "bill@gmail.com",
        "phone": "1234567890",
        "rating": 5.0,
        "city": "Delhi",
        "state": "Delhi",
        "country": "India"
    }
}, {
    "id": 128,
    "name": "Orange",
    "type": "Orange",
    "quantity": 500,
    "imageLocation": "https://upload.wikimedia.org/wikipedia/commons/7/7b/Orange-Whole-%26-Split.jpg",
    "description": "Orange description",
    "harvestDate": 1513641600000,
    "shipmentDate": 1518998400000,
    "latitue": 26.281574,
    "longitude": 127.778633,
    "city": "Ginowan",
    "state": "Okinawa Prefecture",
    "country": "Japan",
    "vendor": {
        "id": 254,
        "name": "Don",
        "email": "don@gmail.com",
        "phone": "1234567890",
        "rating": 2.5,
        "city": "Delhi",
        "state": "Delhi",
        "country": "India"
    }
}, {
    "id": 129,
    "name": "Tomato",
    "type": "Tomato",
    "quantity": 700,
    "imageLocation": "https://upload.wikimedia.org/wikipedia/commons/8/88/Bright_red_tomato_and_cross_section02.jpg",
    "description": "Tomato description",
    "harvestDate": 1517184000000,
    "shipmentDate": 1522281600000,
    "latitue": 26.281574,
    "longitude": 127.778633,
    "city": "Ginowan",
    "state": "Okinawa Prefecture",
    "country": "Japan",
    "vendor": {
        "id": 253,
        "name": "Tom",
        "email": "tom@gmail.com",
        "phone": "1234567890",
        "rating": 3.5,
        "city": "Delhi",
        "state": "Delhi",
        "country": "India"
    }
}, {
    "id": 130,
    "name": "Potato",
    "type": "Potato",
    "quantity": 900,
    "imageLocation": "https://upload.wikimedia.org/wikipedia/commons/a/ab/Patates.jpg",
    "description": "Potato description",
    "harvestDate": 1500076800000,
    "shipmentDate": 1505433600000,
    "latitue": 26.281574,
    "longitude": 127.778633,
    "city": "Ginowan",
    "state": "Okinawa Prefecture",
    "country": "Japan",
    "vendor": {
        "id": 256,
        "name": "Bill",
        "email": "bill@gmail.com",
        "phone": "1234567890",
        "rating": 5.0,
        "city": "Delhi",
        "state": "Delhi",
        "country": "India"
    }
}, {
    "id": 131,
    "name": "Orange",
    "type": "Orange",
    "quantity": 500,
    "imageLocation": "https://upload.wikimedia.org/wikipedia/commons/7/7b/Orange-Whole-%26-Split.jpg",
    "description": "Orange description",
    "harvestDate": 1523145600000,
    "shipmentDate": 1528416000000,
    "latitue": 35.817616,
    "longitude": 139.677887,
    "city": "Toda",
    "state": "Saitama Prefecture",
    "country": "Japan",
    "vendor": {
        "id": 256,
        "name": "Bill",
        "email": "bill@gmail.com",
        "phone": "1234567890",
        "rating": 5.0,
        "city": "Delhi",
        "state": "Delhi",
        "country": "India"
    }
}, {
    "id": 132,
    "name": "Tomato",
    "type": "Tomato",
    "quantity": 700,
    "imageLocation": "https://upload.wikimedia.org/wikipedia/commons/8/88/Bright_red_tomato_and_cross_section02.jpg",
    "description": "Tomato description",
    "harvestDate": 1505174400000,
    "shipmentDate": 1510444800000,
    "latitue": 35.817616,
    "longitude": 139.677887,
    "city": "Toda",
    "state": "Saitama Prefecture",
    "country": "Japan",
    "vendor": {
        "id": 253,
        "name": "Tom",
        "email": "tom@gmail.com",
        "phone": "1234567890",
        "rating": 3.5,
        "city": "Delhi",
        "state": "Delhi",
        "country": "India"
    }
}, {
    "id": 133,
    "name": "Potato",
    "type": "Potato",
    "quantity": 900,
    "imageLocation": "https://upload.wikimedia.org/wikipedia/commons/a/ab/Patates.jpg",
    "description": "Potato description",
    "harvestDate": 1507161600000,
    "shipmentDate": 1512432000000,
    "latitue": 35.817616,
    "longitude": 139.677887,
    "city": "Toda",
    "state": "Saitama Prefecture",
    "country": "Japan",
    "vendor": {
        "id": 255,
        "name": "Harry",
        "email": "harry@gmail.com",
        "phone": "1234567890",
        "rating": 4.5,
        "city": "Delhi",
        "state": "Delhi",
        "country": "India"
    }
}, {
    "id": 134,
    "name": "Orange",
    "type": "Orange",
    "quantity": 500,
    "imageLocation": "https://upload.wikimedia.org/wikipedia/commons/7/7b/Orange-Whole-%26-Split.jpg",
    "description": "Orange description",
    "harvestDate": 1497571200000,
    "shipmentDate": 1502841600000,
    "latitue": 35.694706,
    "longitude": 139.98262,
    "city": "Funabashi",
    "state": "Chiba Prefecture",
    "country": "Japan",
    "vendor": {
        "id": 253,
        "name": "Tom",
        "email": "tom@gmail.com",
        "phone": "1234567890",
        "rating": 3.5,
        "city": "Delhi",
        "state": "Delhi",
        "country": "India"
    }
}, {
    "id": 135,
    "name": "Tomato",
    "type": "Tomato",
    "quantity": 700,
    "imageLocation": "https://upload.wikimedia.org/wikipedia/commons/8/88/Bright_red_tomato_and_cross_section02.jpg",
    "description": "Tomato description",
    "harvestDate": 1510963200000,
    "shipmentDate": 1516233600000,
    "latitue": 35.694706,
    "longitude": 139.98262,
    "city": "Funabashi",
    "state": "Chiba Prefecture",
    "country": "Japan",
    "vendor": {
        "id": 253,
        "name": "Tom",
        "email": "tom@gmail.com",
        "phone": "1234567890",
        "rating": 3.5,
        "city": "Delhi",
        "state": "Delhi",
        "country": "India"
    }
}, {
    "id": 136,
    "name": "Potato",
    "type": "Potato",
    "quantity": 900,
    "imageLocation": "https://upload.wikimedia.org/wikipedia/commons/a/ab/Patates.jpg",
    "description": "Potato description",
    "harvestDate": 1517875200000,
    "shipmentDate": 1522972800000,
    "latitue": 35.694706,
    "longitude": 139.98262,
    "city": "Funabashi",
    "state": "Chiba Prefecture",
    "country": "Japan",
    "vendor": {
        "id": 255,
        "name": "Harry",
        "email": "harry@gmail.com",
        "phone": "1234567890",
        "rating": 4.5,
        "city": "Delhi",
        "state": "Delhi",
        "country": "India"
    }
}, {
    "id": 137,
    "name": "Orange",
    "type": "Orange",
    "quantity": 500,
    "imageLocation": "https://upload.wikimedia.org/wikipedia/commons/7/7b/Orange-Whole-%26-Split.jpg",
    "description": "Orange description",
    "harvestDate": 1514419200000,
    "shipmentDate": 1519776000000,
    "latitue": 27.180134,
    "longitude": 31.189283,
    "city": "Asyut",
    "state": "Assiut Governorate",
    "country": "Egypt",
    "vendor": {
        "id": 255,
        "name": "Harry",
        "email": "harry@gmail.com",
        "phone": "1234567890",
        "rating": 4.5,
        "city": "Delhi",
        "state": "Delhi",
        "country": "India"
    }
}, {
    "id": 138,
    "name": "Tomato",
    "type": "Tomato",
    "quantity": 700,
    "imageLocation": "https://upload.wikimedia.org/wikipedia/commons/8/88/Bright_red_tomato_and_cross_section02.jpg",
    "description": "Tomato description",
    "harvestDate": 1513123200000,
    "shipmentDate": 1518480000000,
    "latitue": 27.180134,
    "longitude": 31.189283,
    "city": "Asyut",
    "state": "Assiut Governorate",
    "country": "Egypt",
    "vendor": {
        "id": 254,
        "name": "Don",
        "email": "don@gmail.com",
        "phone": "1234567890",
        "rating": 2.5,
        "city": "Delhi",
        "state": "Delhi",
        "country": "India"
    }
}, {
    "id": 139,
    "name": "Potato",
    "type": "Potato",
    "quantity": 900,
    "imageLocation": "https://upload.wikimedia.org/wikipedia/commons/a/ab/Patates.jpg",
    "description": "Potato description",
    "harvestDate": 1503878400000,
    "shipmentDate": 1509148800000,
    "latitue": 27.180134,
    "longitude": 31.189283,
    "city": "Asyut",
    "state": "Assiut Governorate",
    "country": "Egypt",
    "vendor": {
        "id": 255,
        "name": "Harry",
        "email": "harry@gmail.com",
        "phone": "1234567890",
        "rating": 4.5,
        "city": "Delhi",
        "state": "Delhi",
        "country": "India"
    }
}, {
    "id": 140,
    "name": "Orange",
    "type": "Orange",
    "quantity": 500,
    "imageLocation": "https://upload.wikimedia.org/wikipedia/commons/7/7b/Orange-Whole-%26-Split.jpg",
    "description": "Orange description",
    "harvestDate": 1511395200000,
    "shipmentDate": 1516665600000,
    "latitue": 31.037933,
    "longitude": 31.381523,
    "city": "Mansoura",
    "state": "Dakahlia Governorate",
    "country": "Egypt",
    "vendor": {
        "id": 256,
        "name": "Bill",
        "email": "bill@gmail.com",
        "phone": "1234567890",
        "rating": 5.0,
        "city": "Delhi",
        "state": "Delhi",
        "country": "India"
    }
}, {
    "id": 141,
    "name": "Tomato",
    "type": "Tomato",
    "quantity": 700,
    "imageLocation": "https://upload.wikimedia.org/wikipedia/commons/8/88/Bright_red_tomato_and_cross_section02.jpg",
    "description": "Tomato description",
    "harvestDate": 1507075200000,
    "shipmentDate": 1512345600000,
    "latitue": 31.037933,
    "longitude": 31.381523,
    "city": "Mansoura",
    "state": "Dakahlia Governorate",
    "country": "Egypt",
    "vendor": {
        "id": 256,
        "name": "Bill",
        "email": "bill@gmail.com",
        "phone": "1234567890",
        "rating": 5.0,
        "city": "Delhi",
        "state": "Delhi",
        "country": "India"
    }
}, {
    "id": 142,
    "name": "Potato",
    "type": "Potato",
    "quantity": 900,
    "imageLocation": "https://upload.wikimedia.org/wikipedia/commons/a/ab/Patates.jpg",
    "description": "Potato description",
    "harvestDate": 1515024000000,
    "shipmentDate": 1520121600000,
    "latitue": 31.037933,
    "longitude": 31.381523,
    "city": "Mansoura",
    "state": "Dakahlia Governorate",
    "country": "Egypt",
    "vendor": {
        "id": 253,
        "name": "Tom",
        "email": "tom@gmail.com",
        "phone": "1234567890",
        "rating": 3.5,
        "city": "Delhi",
        "state": "Delhi",
        "country": "India"
    }
}, {
    "id": 143,
    "name": "Orange",
    "type": "Orange",
    "quantity": 500,
    "imageLocation": "https://upload.wikimedia.org/wikipedia/commons/7/7b/Orange-Whole-%26-Split.jpg",
    "description": "Orange description",
    "harvestDate": 1517097600000,
    "shipmentDate": 1522195200000,
    "latitue": 29.953894,
    "longitude": 40.197044,
    "city": "Sakaka",
    "state": "Al Jawf",
    "country": "Saudi Arabia",
    "vendor": {
        "id": 253,
        "name": "Tom",
        "email": "tom@gmail.com",
        "phone": "1234567890",
        "rating": 3.5,
        "city": "Delhi",
        "state": "Delhi",
        "country": "India"
    }
}, {
    "id": 144,
    "name": "Tomato",
    "type": "Tomato",
    "quantity": 700,
    "imageLocation": "https://upload.wikimedia.org/wikipedia/commons/8/88/Bright_red_tomato_and_cross_section02.jpg",
    "description": "Tomato description",
    "harvestDate": 1508284800000,
    "shipmentDate": 1513555200000,
    "latitue": 29.953894,
    "longitude": 40.197044,
    "city": "Sakaka",
    "state": "Al Jawf",
    "country": "Saudi Arabia",
    "vendor": {
        "id": 256,
        "name": "Bill",
        "email": "bill@gmail.com",
        "phone": "1234567890",
        "rating": 5.0,
        "city": "Delhi",
        "state": "Delhi",
        "country": "India"
    }
}, {
    "id": 145,
    "name": "Potato",
    "type": "Potato",
    "quantity": 900,
    "imageLocation": "https://upload.wikimedia.org/wikipedia/commons/a/ab/Patates.jpg",
    "description": "Potato description",
    "harvestDate": 1503792000000,
    "shipmentDate": 1509062400000,
    "latitue": 29.953894,
    "longitude": 40.197044,
    "city": "Sakaka",
    "state": "Al Jawf",
    "country": "Saudi Arabia",
    "vendor": {
        "id": 253,
        "name": "Tom",
        "email": "tom@gmail.com",
        "phone": "1234567890",
        "rating": 3.5,
        "city": "Delhi",
        "state": "Delhi",
        "country": "India"
    }
}, {
    "id": 146,
    "name": "Orange",
    "type": "Orange",
    "quantity": 500,
    "imageLocation": "https://upload.wikimedia.org/wikipedia/commons/7/7b/Orange-Whole-%26-Split.jpg",
    "description": "Orange description",
    "harvestDate": 1501372800000,
    "shipmentDate": 1506729600000,
    "latitue": -33.866669,
    "longitude": 18.5,
    "city": "Milnerton",
    "state": "Cape Town",
    "country": "South Africa",
    "vendor": {
        "id": 255,
        "name": "Harry",
        "email": "harry@gmail.com",
        "phone": "1234567890",
        "rating": 4.5,
        "city": "Delhi",
        "state": "Delhi",
        "country": "India"
    }
}, {
    "id": 147,
    "name": "Tomato",
    "type": "Tomato",
    "quantity": 700,
    "imageLocation": "https://upload.wikimedia.org/wikipedia/commons/8/88/Bright_red_tomato_and_cross_section02.jpg",
    "description": "Tomato description",
    "harvestDate": 1499644800000,
    "shipmentDate": 1505001600000,
    "latitue": -33.866669,
    "longitude": 18.5,
    "city": "Milnerton",
    "state": "Cape Town",
    "country": "South Africa",
    "vendor": {
        "id": 254,
        "name": "Don",
        "email": "don@gmail.com",
        "phone": "1234567890",
        "rating": 2.5,
        "city": "Delhi",
        "state": "Delhi",
        "country": "India"
    }
}, {
    "id": 148,
    "name": "Potato",
    "type": "Potato",
    "quantity": 900,
    "imageLocation": "https://upload.wikimedia.org/wikipedia/commons/a/ab/Patates.jpg",
    "description": "Potato description",
    "harvestDate": 1510444800000,
    "shipmentDate": 1515715200000,
    "latitue": -33.866669,
    "longitude": 18.5,
    "city": "Milnerton",
    "state": "Cape Town",
    "country": "South Africa",
    "vendor": {
        "id": 253,
        "name": "Tom",
        "email": "tom@gmail.com",
        "phone": "1234567890",
        "rating": 3.5,
        "city": "Delhi",
        "state": "Delhi",
        "country": "India"
    }
}, {
    "id": 149,
    "name": "Orange",
    "type": "Orange",
    "quantity": 500,
    "imageLocation": "https://upload.wikimedia.org/wikipedia/commons/7/7b/Orange-Whole-%26-Split.jpg",
    "description": "Orange description",
    "harvestDate": 1494460800000,
    "shipmentDate": 1499731200000,
    "latitue": -30.718227,
    "longitude": -64.796677,
    "city": "Cruz del Eje",
    "state": "Cordoba Province",
    "country": "Argentina",
    "vendor": {
        "id": 253,
        "name": "Tom",
        "email": "tom@gmail.com",
        "phone": "1234567890",
        "rating": 3.5,
        "city": "Delhi",
        "state": "Delhi",
        "country": "India"
    }
}, {
    "id": 150,
    "name": "Tomato",
    "type": "Tomato",
    "quantity": 700,
    "imageLocation": "https://upload.wikimedia.org/wikipedia/commons/8/88/Bright_red_tomato_and_cross_section02.jpg",
    "description": "Tomato description",
    "harvestDate": 1513296000000,
    "shipmentDate": 1518652800000,
    "latitue": -30.718227,
    "longitude": -64.796677,
    "city": "Cruz del Eje",
    "state": "Cordoba Province",
    "country": "Argentina",
    "vendor": {
        "id": 253,
        "name": "Tom",
        "email": "tom@gmail.com",
        "phone": "1234567890",
        "rating": 3.5,
        "city": "Delhi",
        "state": "Delhi",
        "country": "India"
    }
}, {
    "id": 151,
    "name": "Potato",
    "type": "Potato",
    "quantity": 900,
    "imageLocation": "https://upload.wikimedia.org/wikipedia/commons/a/ab/Patates.jpg",
    "description": "Potato description",
    "harvestDate": 1517961600000,
    "shipmentDate": 1523059200000,
    "latitue": -30.718227,
    "longitude": -64.796677,
    "city": "Cruz del Eje",
    "state": "Cordoba Province",
    "country": "Argentina",
    "vendor": {
        "id": 255,
        "name": "Harry",
        "email": "harry@gmail.com",
        "phone": "1234567890",
        "rating": 4.5,
        "city": "Delhi",
        "state": "Delhi",
        "country": "India"
    }
}, {
    "id": 152,
    "name": "Orange",
    "type": "Orange",
    "quantity": 500,
    "imageLocation": "https://upload.wikimedia.org/wikipedia/commons/7/7b/Orange-Whole-%26-Split.jpg",
    "description": "Orange description",
    "harvestDate": 1511049600000,
    "shipmentDate": 1516320000000,
    "latitue": -37.979858,
    "longitude": -57.589794,
    "city": "Mar del Plata",
    "state": "Buenos Aires Province",
    "country": "Argentina",
    "vendor": {
        "id": 256,
        "name": "Bill",
        "email": "bill@gmail.com",
        "phone": "1234567890",
        "rating": 5.0,
        "city": "Delhi",
        "state": "Delhi",
        "country": "India"
    }
}, {
    "id": 153,
    "name": "Tomato",
    "type": "Tomato",
    "quantity": 700,
    "imageLocation": "https://upload.wikimedia.org/wikipedia/commons/8/88/Bright_red_tomato_and_cross_section02.jpg",
    "description": "Tomato description",
    "harvestDate": 1518566400000,
    "shipmentDate": 1523664000000,
    "latitue": -37.979858,
    "longitude": -57.589794,
    "city": "Mar del Plata",
    "state": "Buenos Aires Province",
    "country": "Argentina",
    "vendor": {
        "id": 254,
        "name": "Don",
        "email": "don@gmail.com",
        "phone": "1234567890",
        "rating": 2.5,
        "city": "Delhi",
        "state": "Delhi",
        "country": "India"
    }
}, {
    "id": 154,
    "name": "Potato",
    "type": "Potato",
    "quantity": 900,
    "imageLocation": "https://upload.wikimedia.org/wikipedia/commons/a/ab/Patates.jpg",
    "description": "Potato description",
    "harvestDate": 1506297600000,
    "shipmentDate": 1511568000000,
    "latitue": -37.979858,
    "longitude": -57.589794,
    "city": "Mar del Plata",
    "state": "Buenos Aires Province",
    "country": "Argentina",
    "vendor": {
        "id": 256,
        "name": "Bill",
        "email": "bill@gmail.com",
        "phone": "1234567890",
        "rating": 5.0,
        "city": "Delhi",
        "state": "Delhi",
        "country": "India"
    }
}, {
    "id": 155,
    "name": "Orange",
    "type": "Orange",
    "quantity": 500,
    "imageLocation": "https://upload.wikimedia.org/wikipedia/commons/7/7b/Orange-Whole-%26-Split.jpg",
    "description": "Orange description",
    "harvestDate": 1492819200000,
    "shipmentDate": 1498089600000,
    "latitue": -27.471226,
    "longitude": -58.839584,
    "city": "Corrientes",
    "state": "Corrientes Province",
    "country": "Argentina",
    "vendor": {
        "id": 254,
        "name": "Don",
        "email": "don@gmail.com",
        "phone": "1234567890",
        "rating": 2.5,
        "city": "Delhi",
        "state": "Delhi",
        "country": "India"
    }
}, {
    "id": 156,
    "name": "Tomato",
    "type": "Tomato",
    "quantity": 700,
    "imageLocation": "https://upload.wikimedia.org/wikipedia/commons/8/88/Bright_red_tomato_and_cross_section02.jpg",
    "description": "Tomato description",
    "harvestDate": 1522281600000,
    "shipmentDate": 1527552000000,
    "latitue": -27.471226,
    "longitude": -58.839584,
    "city": "Corrientes",
    "state": "Corrientes Province",
    "country": "Argentina",
    "vendor": {
        "id": 254,
        "name": "Don",
        "email": "don@gmail.com",
        "phone": "1234567890",
        "rating": 2.5,
        "city": "Delhi",
        "state": "Delhi",
        "country": "India"
    }
}, {
    "id": 157,
    "name": "Potato",
    "type": "Potato",
    "quantity": 900,
    "imageLocation": "https://upload.wikimedia.org/wikipedia/commons/a/ab/Patates.jpg",
    "description": "Potato description",
    "harvestDate": 1495843200000,
    "shipmentDate": 1501113600000,
    "latitue": -27.471226,
    "longitude": -58.839584,
    "city": "Corrientes",
    "state": "Corrientes Province",
    "country": "Argentina",
    "vendor": {
        "id": 254,
        "name": "Don",
        "email": "don@gmail.com",
        "phone": "1234567890",
        "rating": 2.5,
        "city": "Delhi",
        "state": "Delhi",
        "country": "India"
    }
}, {
    "id": 158,
    "name": "Orange",
    "type": "Orange",
    "quantity": 500,
    "imageLocation": "https://upload.wikimedia.org/wikipedia/commons/7/7b/Orange-Whole-%26-Split.jpg",
    "description": "Orange description",
    "harvestDate": 1498089600000,
    "shipmentDate": 1503360000000,
    "latitue": 31.139071,
    "longitude": 120.645134,
    "city": "Suzhou",
    "state": "Jiangsu",
    "country": "China",
    "vendor": {
        "id": 255,
        "name": "Harry",
        "email": "harry@gmail.com",
        "phone": "1234567890",
        "rating": 4.5,
        "city": "Delhi",
        "state": "Delhi",
        "country": "India"
    }
}, {
    "id": 159,
    "name": "Tomato",
    "type": "Tomato",
    "quantity": 700,
    "imageLocation": "https://upload.wikimedia.org/wikipedia/commons/8/88/Bright_red_tomato_and_cross_section02.jpg",
    "description": "Tomato description",
    "harvestDate": 1499472000000,
    "shipmentDate": 1504828800000,
    "latitue": 31.139071,
    "longitude": 120.645134,
    "city": "Suzhou",
    "state": "Jiangsu",
    "country": "China",
    "vendor": {
        "id": 256,
        "name": "Bill",
        "email": "bill@gmail.com",
        "phone": "1234567890",
        "rating": 5.0,
        "city": "Delhi",
        "state": "Delhi",
        "country": "India"
    }
}, {
    "id": 160,
    "name": "Potato",
    "type": "Potato",
    "quantity": 900,
    "imageLocation": "https://upload.wikimedia.org/wikipedia/commons/a/ab/Patates.jpg",
    "description": "Potato description",
    "harvestDate": 1512432000000,
    "shipmentDate": 1517788800000,
    "latitue": 31.139071,
    "longitude": 120.645134,
    "city": "Suzhou",
    "state": "Jiangsu",
    "country": "China",
    "vendor": {
        "id": 253,
        "name": "Tom",
        "email": "tom@gmail.com",
        "phone": "1234567890",
        "rating": 3.5,
        "city": "Delhi",
        "state": "Delhi",
        "country": "India"
    }
}]