[{
    "name": "Mumbai",
    "state": "Maharashtra",
    "lat": "18.975",
    "lon": "72.825833",
    "product":"coconut"
}, {
    "name": "Delhi",
    "state": "Delhi",
    "lat": "28.666667",
    "lon": "77.216667",
    "product":"tomato"
},{
    "name": "Hyderabad",
    "state": "Telangana",
    "lat": "17.375278",
    "lon": "78.474444",
    "product":"tomato"
}, {
    "name": "Ahmedabad",
    "state": "Gujarat",
    "lat": "23.033333",
    "lon": "72.616667",
    "product":"tomato"
}, {
    "name": "Chennai",
    "state": "Tamil Nadu",
    "lat": "13.083333",
    "lon": "80.283333",
    "product":"coconut"
}, {
    "name": "Kolkata",
    "state": "West Bengal",
    "lat": "22.569722",
    "lon": "88.369722",
    "product":"tomato"
}, {
    "name": "Surat",
    "state": "Gujarat",
    "lat": "20.966667",
    "lon": "72.9",
    "product":"coconut"
}, {
    "name": "Pune",
    "state": "Maharashtra",
    "lat": "18.533333",
    "lon": "73.866667",
    "product":"coconut"
}, {
    "name": "Jaipur",
    "state": "Rajasthan",
    "lat": "24.583333",
    "lon": "86.85",
    "product":"tomato"
}, {
    "name": "Lucknow",
    "state": "Uttar Pradesh",
    "lat": "26.85",
    "lon": "80.916667",
    "product":"tomato"
}, {
    "name": "Kanpur",
    "state": "Uttar Pradesh",
    "lat": "26.466667",
    "lon": "80.35",
    "product":"tomato"
}, {
    "name": "Nagpur",
    "state": "Maharashtra",
    "lat": "23.3",
    "lon": "82.3",
    "product":"tomato"
}, {
    "name": "Indore",
    "state": "Madhya Pradesh",
    "lat": "22.716667",
    "lon": "75.833333",
    "product":"potato"
}, {
    "name": "Thane",
    "state": "Maharashtra",
    "lat": "19.2",
    "lon": "72.966667",
    "product":"potato"
}, {
    "name": "Bhopal",
    "state": "Madhya Pradesh",
    "lat": "23.266667",
    "lon": "77.4",
    "product":"potato"
},
{
    "name": "Mangalore",
    "state": "Karnataka",
    "lat": "12.863889",
    "lon": "74.835278",
    "product":"coconut"
},
{
    "name": "Kozhikode",
    "state": "Kerala",
    "lat": "11.25",
    "lon": "75.766667",
    "product":"coconut"
},{
    "name": "Thrissur",
    "state": "Kerala",
    "lat": "10.516667",
    "lon": "76.216667",
    "product":"coconut"
},{
    "name": "Thiruvananthapuram",
    "state": "Kerala",
    "lat": "8.506944",
    "lon": "76.956944",
    "product":"coconut"
},{
    "name": "Kochi",
    "state": "Kerala",
    "lat": "9.966667",
    "lon": "76.233333",
    "product":"coconut"
},{
    "name": "Kozhikode",
    "state": "Kerala",
    "lat": "11.25",
    "lon": "75.766667",
    "product":"coconut"
},{
    "name": "Kollam",
    "state": "Kerala",
    "lat": "8.880556",
    "lon": "76.591667",
    "product":"coconut"
},
{
    "name": "Visakhapatnam",
    "state": "Andhra Pradesh",
    "lat": "17.7",
    "lon": "83.3",
    "product":"coconut"
},{
    "name": "Nellore",
    "state": "Andhra Pradesh",
    "lat": "14.433333",
    "lon": "79.966667",
    "product":"coconut"
},{
    "name": "Brahmapur",
    "state": "Orissa",
    "lat": "19.316667",
    "lon": "84.783333",
    "product":"coconut"
},{
    "name": "Gaya",
    "state": "Bihar",
    "lat": "24.783333",
    "lon": "85",
    "product":"tomato"
},{
    "name": "Bhagalpur",
    "state": "Bihar",
    "lat": "26.169722",
    "lon": "83.872778",
    "product":"tomato"
},{
    "name": "Muzaffarpur",
    "state": "Bihar",
    "lat": "26.116667",
    "lon": "85.4",
    "product":"tomato"
},{
    "name": "Tumkur",
    "state": "Karnataka",
    "lat": "13.342222",
    "lon": "77.101667",
    "product":"tomato"
},{
    "name": "Raichur",
    "state": "Karnataka",
    "lat": "16.2",
    "lon": "77.366667",
    "product":"tomato"
},{
    "name": "Bangalore",
    "state": "Karnataka",
    "lat": "12.983333",
    "lon": "77.583333",
    "product":"tomato"
},{
    "name": "Bhubaneswar",
    "state": "Orissa",
    "lat": "20.233333",
    "lon": "85.833333",
    "product":"coconut"
},{
    "name": "Pimpri-Chinchwad",
    "state": "Maharashtra",
    "lat": "18.6279288",
    "lon": "73.8009829",
    "product":"potato"
}, {
    "name": "Patna",
    "state": "Bihar",
    "lat": "23.3",
    "lon": "82.666667",
    "product":"potato"
}, {
    "name": "Vadodara",
    "state": "Gujarat",
    "lat": "22.3",
    "lon": "73.2",
    "product":"potato"
}, {
    "name": "Ghaziabad",
    "state": "Uttar Pradesh",
    "lat": "28.666667",
    "lon": "77.433333",
    "product":"tomato"
}, {
    "name": "Ludhiana",
    "state": "Punjab",
    "lat": "30.9",
    "lon": "75.85",
    "product":"potato"
}, {
    "name": "Agra",
    "state": "Uttar Pradesh",
    "lat": "27.183333",
    "lon": "78.016667",
    "product":"tomato"
}, {
    "name": "Nashik",
    "state": "Maharashtra",
    "lat": "20.0110224",
    "lon": "73.7903373",
    "product":"brinjal"
}, {
    "name": "Faridabad",
    "state": "Haryana",
    "lat": "28.433333",
    "lon": "77.316667",
    "product":"brinjal"
}, {
    "name": "Meerut",
    "state": "Uttar Pradesh",
    "lat": "28.983333",
    "lon": "77.7",
    "product":"tomato"
}, {
    "name": "Rajkot",
    "state": "Gujarat",
    "lat": "25.731111",
    "lon": "75.5925",
    "product":"brinjal"
}, {
    "name": "Kalyan-Dombivali",
    "state": "Maharashtra",
    "lat": "19.235433",
    "lon": "73.129889",
    "product":"brinjal"
}, {
    "name": "Vasai-Virar",
    "state": "Maharashtra",
    "lat": "19.4258788",
    "lon": "72.8224901",
    "product":"brinjal"
}, {
    "name": "Varanasi",
    "state": "Uttar Pradesh",
    "lat": "25.333333",
    "lon": "83",
    "product":"tomato"
}, {
    "name": "Srinagar",
    "state": "Jammu and Kashmir",
    "lat": "30.216667",
    "lon": "78.783333",
    "product":"brinjal"
}, {
    "name": "Aurangabad",
    "state": "Maharashtra",
    "lat": "26.596",
    "lon": "79.9701",
    "product":"brinjal"
}, {
    "name": "Dhanbad",
    "state": "Jharkhand",
    "lat": "23.8",
    "lon": "86.45",
    "product":"tomato"
}, {
    "name": "Amritsar",
    "state": "Punjab",
    "lat": "31.633056",
    "lon": "74.865556",
    "product":"potato"
}, {
    "name": "Navi Mumbai",
    "state": "Maharashtra",
    "lat": "19.033049",
    "lon": "73.029662",
    "product":"coconut"
}, {
    "name": "Allahabad",
    "state": "Uttar Pradesh",
    "lat": "25.45",
    "lon": "81.85",
    "product":"tomato"
}, {
    "name": "Ranchi",
    "state": "Jharkhand",
    "lat": "23.35",
    "lon": "85.333333",
    "product":"potato"
}, {
    "name": "Howrah",
    "state": "West Bengal",
    "lat": "22.589167",
    "lon": "88.310278",
    "product":"tomato"
}, {
    "name": "Coimbatore",
    "state": "Tamil Nadu",
    "lat": "10.9925",
    "lon": "76.961389",
    "product":"coconut"
}, {
    "name": "Jabalpur",
    "state": "Madhya Pradesh",
    "lat": "23.166667",
    "lon": "79.95",
    "product":"brinjal"
}, {
    "name": "Gwalior",
    "state": "Madhya Pradesh",
    "lat": "26.223611",
    "lon": "78.179167",
    "product":"brinjal"
}, {
    "name": "Vijayawada",
    "state": "Andhra Pradesh",
    "lat": "16.516667",
    "lon": "80.616667",
    "product":"potato"
}, {
    "name": "Jodhpur",
    "state": "Rajasthan",
    "lat": "26.286667",
    "lon": "73.03",
    "product":"potato"
}, {
    "name": "Madurai",
    "state": "Tamil Nadu",
    "lat": "9.933333",
    "lon": "78.116667",
    "product":"tomato"
}]