[
    {
        "name": "Anandh",
        "produce":"tomato",
        "contactDetails":{
            "phone": 1234122322,
            "AddressLine1":"#1, Vijaya Bank Colony",
            "AddressLine2":"Horamavu, Banaswadi",
            "City":{"name":"Bangalore","lat":"18.975","long":"72.8258333"},
            "State":{"name":"Karnataka","lat":"18.975","long":"72.8258333"},
            "Country":{"name":"India","lat":"18.975","long":"72.8258333"},
            "Zip":12345
        }
    },
    {
        "name": "Mangesh",
        "produce":"tomato",
        "contactDetails":{
            "phone": 1234122322,
            "AddressLine1":"#233, Rajiv Gandhi Nagar",
            "AddressLine2":"raju bhai nagar, Andheri",
            "City":{"name":"Mumbai","lat":"18.975","long":"72.8258333"},
            "State":{"name":"Maharashtra","lat":"18.975","long":"72.8258333"},
            "Country":{"name":"India","lat":"18.975","long":"72.8258333"},
            "Zip":12345
        }
    },
    
{
    "name": "Mumbai",
    "state": "Maharashtra",
    "lat": "18.975",
    "lon": "72.825833",
    "product":"coconut"
},  {
    "name": "Chennai",
    "state": "Tamil Nadu",
    "lat": "13.083333",
    "lon": "80.283333",
    "product":"coconut"
}, {  "name": "Nagpur",
    "state": "Maharashtra",
    "lat": "23.3",
    "lon": "82.3",
    "product":"tomato"
}, {
    "name": "Indore",
    "state": "Madhya Pradesh",
    "lat": "22.716667",
    "lon": "75.833333",
    "product":"potato"
}, {
    "name": "Thane",
    "state": "Maharashtra",
    "lat": "19.2",
    "lon": "72.966667",
    "product":"potato"
}, {
    "name": "Bhopal",
    "state": "Madhya Pradesh",
    "lat": "23.266667",
    "lon": "77.4",
    "product":"potato"
},
{
    "name": "Mangalore",
    "state": "Karnataka",
    "lat": "12.863889",
    "lon": "74.835278",
    "product":"coconut"
},
{
    "name": "Kozhikode",
    "state": "Kerala",
    "lat": "11.25",
    "lon": "75.766667",
    "product":"coconut"
},{
    "name": "Thrissur",
    "state": "Kerala",
    "lat": "10.516667",
    "lon": "76.216667",
    "product":"coconut"
},{
    "name": "Thiruvananthapuram",
    "state": "Kerala",
    "lat": "8.506944",
    "lon": "76.956944",
    "product":"coconut"
},{
    "name": "Kochi",
    "state": "Kerala",
    "lat": "9.966667",
    "lon": "76.233333",
    "product":"coconut"
},{
    "name": "Kozhikode",
    "state": "Kerala",
    "lat": "11.25",
    "lon": "75.766667",
    "product":"coconut"
},{
    "name": "Kollam",
    "state": "Kerala",
    "lat": "8.880556",
    "lon": "76.591667",
    "product":"coconut"
},
{
    "name": "Visakhapatnam",
    "state": "Andhra Pradesh",
    "lat": "17.7",
    "lon": "83.3",
    "product":"coconut"
},{
    "name": "Muzaffarpur",
    "state": "Bihar",
    "lat": "26.116667",
    "lon": "85.4",
    "product":"tomato"
},{
    "name": "Tumkur",
    "state": "Karnataka",
    "lat": "13.342222",
    "lon": "77.101667",
    "product":"tomato"
},{
    "name": "Bhubaneswar",
    "state": "Orissa",
    "lat": "20.233333",
    "lon": "85.833333",
    "product":"coconut"
},{
    "name": "Pimpri-Chinchwad",
    "state": "Maharashtra",
    "lat": "18.6279288",
    "lon": "73.8009829",
    "product":"potato"
}, {
    "name": "Ghaziabad",
    "state": "Uttar Pradesh",
    "lat": "28.666667",
    "lon": "77.433333",
    "product":"tomato"
}, {
    "name": "Ludhiana",
    "state": "Punjab",
    "lat": "30.9",
    "lon": "75.85",
    "product":"potato"
}, {
    "name": "Agra",
    "state": "Uttar Pradesh",
    "lat": "27.183333",
    "lon": "78.016667",
    "product":"tomato"
}, {
    "name": "Nashik",
    "state": "Maharashtra",
    "lat": "20.0110224",
    "lon": "73.7903373",
    "product":"brinjal"
}, {
    "name": "Faridabad",
    "state": "Haryana",
    "lat": "28.433333",
    "lon": "77.316667",
    "product":"brinjal"
}, {
    "name": "Meerut",
    "state": "Uttar Pradesh",
    "lat": "28.983333",
    "lon": "77.7",
    "product":"tomato"
}, {
    "name": "Rajkot",
    "state": "Gujarat",
    "lat": "25.731111",
    "lon": "75.5925",
    "product":"brinjal"
}, {
    "name": "Varanasi",
    "state": "Uttar Pradesh",
    "lat": "25.333333",
    "lon": "83",
    "product":"tomato"
}, {
    "name": "Srinagar",
    "state": "Jammu and Kashmir",
    "lat": "30.216667",
    "lon": "78.783333",
    "product":"brinjal"
}, {
    "name": "Aurangabad",
    "state": "Maharashtra",
    "lat": "26.596",
    "lon": "79.9701",
    "product":"brinjal"
}, {
    "name": "Dhanbad",
    "state": "Jharkhand",
    "lat": "23.8",
    "lon": "86.45",
    "product":"tomato"
}, {
    "name": "Amritsar",
    "state": "Punjab",
    "lat": "31.633056",
    "lon": "74.865556",
    "product":"potato"
}, {
    "name": "Navi Mumbai",
    "state": "Maharashtra",
    "lat": "19.033049",
    "lon": "73.029662",
    "product":"coconut"
}]